[
  {
    "id": "010010-99999",
    "name": "JAN MAYEN(NOR-NAVY)",
    "country": "NO",
    "state": "",
    "latitude": 70.933,
    "longitude": -8.667,
    "elevation": 0.9,
    "active": true
  },
  {
    "id": "010014-99999",
    "name": "SORSTOKKEN / STORD",
    "country": "NO",
    "state": "",
    "latitude": 59.792,
    "longitude": 5.341,
    "elevation": 4.88,
    "active": true
  },
  {
    "id": "010020-99999",
    "name": "VERLEGENHUKEN",
    "country": "NO",
    "state": "",
    "latitude": 80.05,
    "longitude": 16.25,
    "elevation": 0.8,
    "active": true
  },
  {
    "id": "010030-99999",
    "name": "HORNSUND",
    "country": "NO",
    "state": "",
    "latitude": 77,
    "longitude": 15.5,
    "elevation": 1.2,
    "active": true
  },
  {
    "id": "010060-99999",
    "name": "EDGEOYA",
    "country": "NO",
    "state": "",
    "latitude": 78.25,
    "longitude": 22.817,
    "elevation": 1.4,
    "active": true
  },
  {
    "id": "010070-99999",
    "name": "NY-ALESUND",
    "country": "SV",
    "state": "",
    "latitude": 78.917,
    "longitude": 11.933,
    "elevation": 0.77,
    "active": true
  },
  {
    "id": "010080-99999",
    "name": "LONGYEAR",
    "country": "SV",
    "state": "",
    "latitude": 78.246,
    "longitude": 15.466,
    "elevation": 2.68,
    "active": true
  },
  {
    "id": "010090-99999",
    "name": "KARL XII OYA",
    "country": "SV",
    "state": "",
    "latitude": 80.65,
    "longitude": 25,
    "elevation": 0.5,
    "active": true
  },
  {
    "id": "010100-99999",
    "name": "ANDOYA",
    "country": "NO",
    "state": "",
    "latitude": 69.293,
    "longitude": 16.144,
    "elevation": 1.31,
    "active": true
  },
  {
    "id": "010110-99999",
    "name": "KVITOYA",
    "country": "SV",
    "state": "",
    "latitude": 80.067,
    "longitude": 31.5,
    "elevation": 1,
    "active": true
  },
  {
    "id": "010150-99999",
    "name": "HEKKINGEN FYR",
    "country": "NO",
    "state": "",
    "latitude": 69.6,
    "longitude": 17.833,
    "elevation": 1.4,
    "active": true
  },
  {
    "id": "010160-99999",
    "name": "KONGSOYA",
    "country": "NO",
    "state": "",
    "latitude": 78.933,
    "longitude": 28.9,
    "elevation": 2,
    "active": true
  },
  {
    "id": "010170-99999",
    "name": "AKSELOYA",
    "country": "SV",
    "state": "",
    "latitude": 77.683,
    "longitude": 14.783,
    "elevation": 0.6,
    "active": true
  },
  {
    "id": "010200-99999",
    "name": "SORKAPPOYA",
    "country": "SV",
    "state": "",
    "latitude": 76.483,
    "longitude": 16.55,
    "elevation": 1,
    "active": true
  },
  {
    "id": "010230-99999",
    "name": "BARDUFOSS",
    "country": "NO",
    "state": "",
    "latitude": 69.056,
    "longitude": 18.54,
    "elevation": 7.68,
    "active": true
  },
  {
    "id": "010231-99999",
    "name": "DRAUGEN",
    "country": "NO",
    "state": "",
    "latitude": 64.35,
    "longitude": 7.8,
    "elevation": 0,
    "active": true
  },
  {
    "id": "010250-99999",
    "name": "TROMSO",
    "country": "NO",
    "state": "",
    "latitude": 69.683,
    "longitude": 18.919,
    "elevation": 0.9400000000000001,
    "active": true
  },
  {
    "id": "010260-99999",
    "name": "TROMSO",
    "country": "NO",
    "state": "",
    "latitude": 69.65,
    "longitude": 18.933,
    "elevation": 11.45,
    "active": true
  },
  {
    "id": "010270-99999",
    "name": "TROMSO-HOLT",
    "country": "NO",
    "state": "",
    "latitude": 69.65,
    "longitude": 18.9,
    "elevation": 2,
    "active": true
  },
  {
    "id": "010280-99999",
    "name": "BJORNOYA ISLAND",
    "country": "NO",
    "state": "",
    "latitude": 74.517,
    "longitude": 19.017,
    "elevation": 1.8,
    "active": true
  },
  {
    "id": "010300-99999",
    "name": "KISTEFJELL",
    "country": "NO",
    "state": "",
    "latitude": 69.283,
    "longitude": 18.133,
    "elevation": 98.2,
    "active": true
  },
  {
    "id": "010330-99999",
    "name": "TORSVAG FYR",
    "country": "NO",
    "state": "",
    "latitude": 70.25,
    "longitude": 19.5,
    "elevation": 2.4,
    "active": true
  },
  {
    "id": "010350-99999",
    "name": "LYNGEN GJERDVASSBU",
    "country": "NO",
    "state": "",
    "latitude": 69.567,
    "longitude": 20.1,
    "elevation": 71,
    "active": true
  },
  {
    "id": "010370-99999",
    "name": "SKIBOTN 2",
    "country": "NO",
    "state": "",
    "latitude": 69.383,
    "longitude": 20.283,
    "elevation": 2,
    "active": true
  },
  {
    "id": "010420-99999",
    "name": "HASVIK-SLUSKFJELLET",
    "country": "NO",
    "state": "",
    "latitude": 70.6,
    "longitude": 22.45,
    "elevation": 43.8,
    "active": true
  },
  {
    "id": "010430-99999",
    "name": "ROGNSUNDET",
    "country": "NO",
    "state": "",
    "latitude": 70.417,
    "longitude": 22.817,
    "elevation": 1,
    "active": true
  },
  {
    "id": "010440-99999",
    "name": "HASVIK",
    "country": "NO",
    "state": "",
    "latitude": 70.487,
    "longitude": 22.14,
    "elevation": 0.64,
    "active": true
  },
  {
    "id": "010450-99999",
    "name": "NORDSTRAUM I KVAENANGEN",
    "country": "NO",
    "state": "",
    "latitude": 69.833,
    "longitude": 21.883,
    "elevation": 0.6,
    "active": true
  },
  {
    "id": "010460-99999",
    "name": "SORKJOSEN",
    "country": "NO",
    "state": "",
    "latitude": 69.787,
    "longitude": 20.959,
    "elevation": 0.49000000000000005,
    "active": true
  },
  {
    "id": "010470-99999",
    "name": "KAUTOKEINO II",
    "country": "NO",
    "state": "",
    "latitude": 69.017,
    "longitude": 23.067,
    "elevation": 30.7,
    "active": true
  },
  {
    "id": "010490-99999",
    "name": "ALTA",
    "country": "NO",
    "state": "",
    "latitude": 69.976,
    "longitude": 23.372,
    "elevation": 0.27,
    "active": true
  },
  {
    "id": "010520-99999",
    "name": "HAMMERFEST AP",
    "country": "NO",
    "state": "",
    "latitude": 70.683,
    "longitude": 23.683,
    "elevation": 8.1,
    "active": true
  },
  {
    "id": "010550-99999",
    "name": "FRUHOLMEN FYR",
    "country": "NO",
    "state": "",
    "latitude": 71.1,
    "longitude": 23.983,
    "elevation": 1.42,
    "active": true
  },
  {
    "id": "010570-99999",
    "name": "CUOVDDATMOHKKI",
    "country": "NO",
    "state": "",
    "latitude": 69.367,
    "longitude": 24.433,
    "elevation": 28.6,
    "active": true
  },
  {
    "id": "010580-99999",
    "name": "SUOLOVUOPMI LULIT",
    "country": "NO",
    "state": "",
    "latitude": 69.567,
    "longitude": 23.533,
    "elevation": 38.1,
    "active": true
  },
  {
    "id": "010590-99999",
    "name": "BANAK / LAKSELV",
    "country": "NO",
    "state": "",
    "latitude": 70.069,
    "longitude": 24.973,
    "elevation": 0.76,
    "active": true
  },
  {
    "id": "010620-99999",
    "name": "HOPEN ISLAND",
    "country": "NO",
    "state": "",
    "latitude": 76.5,
    "longitude": 25.067,
    "elevation": 1,
    "active": true
  },
  {
    "id": "010650-99999",
    "name": "KARASJOK",
    "country": "NO",
    "state": "",
    "latitude": 69.467,
    "longitude": 25.517,
    "elevation": 13.3,
    "active": true
  },
  {
    "id": "010680-99999",
    "name": "HONNINGSVAG/VALAN",
    "country": "NO",
    "state": "",
    "latitude": 71.017,
    "longitude": 25.983,
    "elevation": 1.4,
    "active": true
  },
  {
    "id": "010740-99999",
    "name": "MEHAMN",
    "country": "NO",
    "state": "",
    "latitude": 71.033,
    "longitude": 27.833,
    "elevation": 1.3,
    "active": true
  },
  {
    "id": "010760-99999",
    "name": "TANABRU",
    "country": "NO",
    "state": "",
    "latitude": 70.217,
    "longitude": 28.167,
    "elevation": 3.2,
    "active": true
  },
  {
    "id": "010780-99999",
    "name": "SLETTNES FYR",
    "country": "NO",
    "state": "",
    "latitude": 71.1,
    "longitude": 28.233,
    "elevation": 1,
    "active": true
  },
  {
    "id": "010820-99999",
    "name": "NYRUD",
    "country": "NO",
    "state": "",
    "latitude": 69.15,
    "longitude": 29.25,
    "elevation": 5.6,
    "active": true
  },
  {
    "id": "010830-99999",
    "name": "BERLEVAG",
    "country": "NO",
    "state": "",
    "latitude": 70.867,
    "longitude": 29.033,
    "elevation": 1.3,
    "active": true
  },
  {
    "id": "010840-99999",
    "name": "PASVIK",
    "country": "NO",
    "state": "",
    "latitude": 69.45,
    "longitude": 30.033,
    "elevation": 2.7,
    "active": true
  },
  {
    "id": "010860-99999",
    "name": "BATSFJORD",
    "country": "NO",
    "state": "",
    "latitude": 70.6,
    "longitude": 29.693,
    "elevation": 14.940000000000001,
    "active": true
  },
  {
    "id": "010876-99999",
    "name": "NORNE OIL PLATFORM",
    "country": "NO",
    "state": "",
    "latitude": 66.017,
    "longitude": 8.083,
    "elevation": 9,
    "active": true
  },
  {
    "id": "010877-99999",
    "name": "TROLL A  OIL PLATFORM",
    "country": "NO",
    "state": "",
    "latitude": 60.633,
    "longitude": 3.717,
    "elevation": 9,
    "active": true
  },
  {
    "id": "010878-99999",
    "name": "SNORRE A  OIL PLATFORM",
    "country": "NO",
    "state": "",
    "latitude": 61.45,
    "longitude": 2.133,
    "elevation": 9,
    "active": true
  },
  {
    "id": "010879-99999",
    "name": "SNORRE B  OIL PLATFORM",
    "country": "NO",
    "state": "",
    "latitude": 61.533,
    "longitude": 2.2,
    "elevation": 9,
    "active": true
  },
  {
    "id": "010880-99999",
    "name": "VADSO",
    "country": "NO",
    "state": "",
    "latitude": 70.067,
    "longitude": 29.85,
    "elevation": 3.9,
    "active": true
  },
  {
    "id": "010882-99999",
    "name": "ROROS",
    "country": "NO",
    "state": "",
    "latitude": 62.578,
    "longitude": 11.342,
    "elevation": 62.61,
    "active": true
  },
  {
    "id": "010886-99999",
    "name": "SLEIPNER A OIL PLATFORM",
    "country": "NO",
    "state": "",
    "latitude": 58.367,
    "longitude": 1.9,
    "elevation": 3,
    "active": true
  },
  {
    "id": "010887-99999",
    "name": "TROLL C OIL PLATFORM",
    "country": "NO",
    "state": "",
    "latitude": 60.886,
    "longitude": 3.61,
    "elevation": 2,
    "active": true
  },
  {
    "id": "010890-99999",
    "name": "HOYBUKTMOEN / KIRKENES",
    "country": "NO",
    "state": "",
    "latitude": 69.726,
    "longitude": 29.893,
    "elevation": 8.629999999999999,
    "active": true
  },
  {
    "id": "010920-99999",
    "name": "MAKKAUR FYR",
    "country": "NO",
    "state": "",
    "latitude": 70.7,
    "longitude": 30.083,
    "elevation": 0.9,
    "active": true
  },
  {
    "id": "010980-99999",
    "name": "VARDO",
    "country": "NO",
    "state": "",
    "latitude": 70.367,
    "longitude": 31.1,
    "elevation": 1.5,
    "active": true
  },
  {
    "id": "010990-99999",
    "name": "VARDO AP / SVARTNES",
    "country": "NO",
    "state": "",
    "latitude": 70.355,
    "longitude": 31.045,
    "elevation": 1.28,
    "active": true
  },
  {
    "id": "011020-99999",
    "name": "SKLINNA FYR",
    "country": "NO",
    "state": "",
    "latitude": 65.2,
    "longitude": 11,
    "elevation": 1.6,
    "active": true
  },
  {
    "id": "011025-99999",
    "name": "HEIDRUN",
    "country": "NO",
    "state": "",
    "latitude": 65.333,
    "longitude": 7.317,
    "elevation": 8,
    "active": true
  },
  {
    "id": "011050-99999",
    "name": "ROTVAER",
    "country": "NO",
    "state": "",
    "latitude": 68.367,
    "longitude": 15.95,
    "elevation": 0.8,
    "active": true
  },
  {
    "id": "011070-99999",
    "name": "ROST (NOR-AFB)",
    "country": "NO",
    "state": "",
    "latitude": 67.517,
    "longitude": 12.1,
    "elevation": 0.4,
    "active": true
  },
  {
    "id": "011080-99999",
    "name": "VEGA-VALLSJO",
    "country": "NO",
    "state": "",
    "latitude": 65.7,
    "longitude": 11.85,
    "elevation": 0.9099999999999999,
    "active": true
  },
  {
    "id": "011120-99999",
    "name": "BRONNOY / BRONNOYSUND",
    "country": "NO",
    "state": "",
    "latitude": 65.461,
    "longitude": 12.218,
    "elevation": 0.76,
    "active": true
  },
  {
    "id": "011140-99999",
    "name": "REIPA",
    "country": "NO",
    "state": "",
    "latitude": 66.9,
    "longitude": 13.633,
    "elevation": 0.8,
    "active": true
  },
  {
    "id": "011150-99999",
    "name": "MYKEN",
    "country": "NO",
    "state": "",
    "latitude": 66.767,
    "longitude": 12.483,
    "elevation": 1.3,
    "active": true
  },
  {
    "id": "011160-99999",
    "name": "STOKKA / SANDNESSJOEN",
    "country": "NO",
    "state": "",
    "latitude": 65.95,
    "longitude": 12.467,
    "elevation": 1.7100000000000002,
    "active": true
  },
  {
    "id": "011170-99999",
    "name": "TJOTTA",
    "country": "NO",
    "state": "",
    "latitude": 65.817,
    "longitude": 12.417,
    "elevation": 2.1,
    "active": true
  },
  {
    "id": "011210-99999",
    "name": "SOLVAER III",
    "country": "NO",
    "state": "",
    "latitude": 66.367,
    "longitude": 12.617,
    "elevation": 1,
    "active": true
  },
  {
    "id": "011220-99999",
    "name": "KJAERSTAD",
    "country": "NO",
    "state": "",
    "latitude": 65.784,
    "longitude": 13.215,
    "elevation": 7.220000000000001,
    "active": true
  },
  {
    "id": "011240-99999",
    "name": "SNASA",
    "country": "NO",
    "state": "",
    "latitude": 64.167,
    "longitude": 12.467,
    "elevation": 19.5,
    "active": true
  },
  {
    "id": "011320-99999",
    "name": "MAJAVATN V",
    "country": "NO",
    "state": "",
    "latitude": 65.167,
    "longitude": 13.367,
    "elevation": 31.9,
    "active": true
  },
  {
    "id": "011330-99999",
    "name": "LAKSFORS",
    "country": "NO",
    "state": "",
    "latitude": 65.617,
    "longitude": 13.283,
    "elevation": 5,
    "active": true
  },
  {
    "id": "011350-99999",
    "name": "SELJELIA",
    "country": "NO",
    "state": "",
    "latitude": 66.117,
    "longitude": 13.583,
    "elevation": 12.3,
    "active": true
  },
  {
    "id": "011390-99999",
    "name": "VAEROY HELIPORT",
    "country": "NO",
    "state": "",
    "latitude": 67.65,
    "longitude": 12.717,
    "elevation": 0.4,
    "active": true
  },
  {
    "id": "011410-99999",
    "name": "LEKNES",
    "country": "NO",
    "state": "",
    "latitude": 68.15,
    "longitude": 13.617,
    "elevation": 2.6,
    "active": true
  },
  {
    "id": "011430-99999",
    "name": "DRAG-AJLUOKTA",
    "country": "NO",
    "state": "",
    "latitude": 68.05,
    "longitude": 16.083,
    "elevation": 1.9,
    "active": true
  },
  {
    "id": "011440-99999",
    "name": "HELLIGVAER II",
    "country": "NO",
    "state": "",
    "latitude": 67.4,
    "longitude": 13.883,
    "elevation": 2.4,
    "active": true
  },
  {
    "id": "011460-99999",
    "name": "SKAMDAL",
    "country": "NO",
    "state": "",
    "latitude": 66.233,
    "longitude": 13.883,
    "elevation": 0.5,
    "active": true
  },
  {
    "id": "011470-99999",
    "name": "VARNTRESK",
    "country": "NO",
    "state": "",
    "latitude": 65.833,
    "longitude": 14.183,
    "elevation": 40.6,
    "active": true
  },
  {
    "id": "011480-99999",
    "name": "STORFORSHEI",
    "country": "NO",
    "state": "",
    "latitude": 66.383,
    "longitude": 14.517,
    "elevation": 11,
    "active": true
  },
  {
    "id": "011500-99999",
    "name": "HJARTASEN",
    "country": "NO",
    "state": "",
    "latitude": 66.5,
    "longitude": 14.95,
    "elevation": 25.1,
    "active": true
  },
  {
    "id": "011510-99999",
    "name": "MOIRANA",
    "country": "NO",
    "state": "",
    "latitude": 66.367,
    "longitude": 14.3,
    "elevation": 7,
    "active": true
  },
  {
    "id": "011520-99999",
    "name": "BODO",
    "country": "NO",
    "state": "",
    "latitude": 67.269,
    "longitude": 14.365,
    "elevation": 1.28,
    "active": true
  },
  {
    "id": "011560-99999",
    "name": "BO I VESTERALEN",
    "country": "NO",
    "state": "",
    "latitude": 68.6,
    "longitude": 14.433,
    "elevation": 0.76,
    "active": true
  },
  {
    "id": "011580-99999",
    "name": "SETSA",
    "country": "NO",
    "state": "",
    "latitude": 67.167,
    "longitude": 15.483,
    "elevation": 0.8,
    "active": true
  },
  {
    "id": "011600-99999",
    "name": "SKROVA FYR",
    "country": "NO",
    "state": "",
    "latitude": 68.15,
    "longitude": 14.65,
    "elevation": 1.1,
    "active": true
  },
  {
    "id": "011610-99999",
    "name": "SVOLVAER/HELLE",
    "country": "NO",
    "state": "",
    "latitude": 68.25,
    "longitude": 14.667,
    "elevation": 0.9,
    "active": true
  },
  {
    "id": "011620-99999",
    "name": "STORKMARKNES/SKAGEN",
    "country": "NO",
    "state": "",
    "latitude": 68.583,
    "longitude": 15.017,
    "elevation": 0.3,
    "active": true
  },
  {
    "id": "011690-99999",
    "name": "SALTDAL-NORDNES",
    "country": "NO",
    "state": "",
    "latitude": 66.933,
    "longitude": 15.317,
    "elevation": 3.7,
    "active": true
  },
  {
    "id": "011800-99999",
    "name": "HARSTAD",
    "country": "NO",
    "state": "",
    "latitude": 68.8,
    "longitude": 16.533,
    "elevation": 4.5,
    "active": true
  },
  {
    "id": "011830-99999",
    "name": "EVENES / HARSTAD NARVIK",
    "country": "NO",
    "state": "",
    "latitude": 68.491,
    "longitude": 16.678,
    "elevation": 2.56,
    "active": true
  },
  {
    "id": "011920-99999",
    "name": "STRAUMSNES",
    "country": "NO",
    "state": "",
    "latitude": 68.417,
    "longitude": 17.65,
    "elevation": 20,
    "active": true
  },
  {
    "id": "011980-99999",
    "name": "DIVIDALEN II",
    "country": "NO",
    "state": "",
    "latitude": 68.783,
    "longitude": 19.7,
    "elevation": 20.4,
    "active": true
  },
  {
    "id": "011990-99999",
    "name": "SIHCCAJAVRI",
    "country": "NO",
    "state": "",
    "latitude": 68.75,
    "longitude": 23.533,
    "elevation": 38.2,
    "active": true
  },
  {
    "id": "012030-99999",
    "name": "KRAKENES",
    "country": "NO",
    "state": "",
    "latitude": 62.033,
    "longitude": 4.983,
    "elevation": 4.1,
    "active": true
  },
  {
    "id": "012050-99999",
    "name": "SVINOY LH",
    "country": "NO",
    "state": "",
    "latitude": 62.333,
    "longitude": 5.267,
    "elevation": 3.72,
    "active": true
  },
  {
    "id": "012090-99999",
    "name": "ORSTA-VOLDA/HOVDEN",
    "country": "NO",
    "state": "",
    "latitude": 62.183,
    "longitude": 6.067,
    "elevation": 7.4,
    "active": true
  },
  {
    "id": "012100-99999",
    "name": "VIGRA / ALESUND",
    "country": "NO",
    "state": "",
    "latitude": 62.56,
    "longitude": 6.11,
    "elevation": 2.1,
    "active": true
  },
  {
    "id": "012120-99999",
    "name": "ONA II",
    "country": "NO",
    "state": "",
    "latitude": 62.867,
    "longitude": 6.533,
    "elevation": 1.5,
    "active": true
  },
  {
    "id": "012140-99999",
    "name": "REKDAL",
    "country": "NO",
    "state": "",
    "latitude": 62.65,
    "longitude": 6.767,
    "elevation": 4.3,
    "active": true
  },
  {
    "id": "012170-99999",
    "name": "ARO",
    "country": "NO",
    "state": "",
    "latitude": 62.745,
    "longitude": 7.263,
    "elevation": 0.3,
    "active": true
  },
  {
    "id": "012180-99999",
    "name": "TAFJORD",
    "country": "NO",
    "state": "",
    "latitude": 62.233,
    "longitude": 7.417,
    "elevation": 1.7,
    "active": true
  },
  {
    "id": "012200-99999",
    "name": "MANNEN",
    "country": "NO",
    "state": "",
    "latitude": 62.45,
    "longitude": 7.767,
    "elevation": 129.4,
    "active": true
  },
  {
    "id": "012210-99999",
    "name": "TAGDALEN",
    "country": "NO",
    "state": "",
    "latitude": 63.05,
    "longitude": 9.083,
    "elevation": 41.5,
    "active": true
  },
  {
    "id": "012230-99999",
    "name": "KVERNBERGET",
    "country": "NO",
    "state": "",
    "latitude": 63.112,
    "longitude": 7.825,
    "elevation": 6.220000000000001,
    "active": true
  },
  {
    "id": "012240-99999",
    "name": "AALESUND",
    "country": "NO",
    "state": "",
    "latitude": 62.467,
    "longitude": 6.217,
    "elevation": 5,
    "active": true
  },
  {
    "id": "012250-99999",
    "name": "VEIHOLMEN",
    "country": "NO",
    "state": "",
    "latitude": 63.517,
    "longitude": 7.95,
    "elevation": 0.5,
    "active": true
  },
  {
    "id": "012270-99999",
    "name": "INNERDALEN",
    "country": "NO",
    "state": "",
    "latitude": 62.717,
    "longitude": 8.783,
    "elevation": 40.5,
    "active": true
  },
  {
    "id": "012280-99999",
    "name": "SULA",
    "country": "NO",
    "state": "",
    "latitude": 63.85,
    "longitude": 8.467,
    "elevation": 0.6,
    "active": true
  },
  {
    "id": "012300-99999",
    "name": "BJORLI",
    "country": "NO",
    "state": "",
    "latitude": 62.267,
    "longitude": 8.2,
    "elevation": 57.9,
    "active": true
  },
  {
    "id": "012320-99999",
    "name": "VINJEORA II",
    "country": "NO",
    "state": "",
    "latitude": 62.45,
    "longitude": 7.85,
    "elevation": 6.7,
    "active": true
  },
  {
    "id": "012330-99999",
    "name": "DOMBAAS",
    "country": "NO",
    "state": "",
    "latitude": 62.083,
    "longitude": 9.117,
    "elevation": 63.8,
    "active": true
  },
  {
    "id": "012340-99999",
    "name": "ORKDAL-THAMSHAMN",
    "country": "NO",
    "state": "",
    "latitude": 63.317,
    "longitude": 9.85,
    "elevation": 0.4,
    "active": true
  },
  {
    "id": "012370-99999",
    "name": "HITRA",
    "country": "NO",
    "state": "",
    "latitude": 63.517,
    "longitude": 9.117,
    "elevation": 1.3,
    "active": true
  },
  {
    "id": "012380-99999",
    "name": "FOKSTUA II",
    "country": "NO",
    "state": "",
    "latitude": 62.117,
    "longitude": 9.283,
    "elevation": 97.4,
    "active": true
  },
  {
    "id": "012390-99999",
    "name": "HJERKINN II",
    "country": "NO",
    "state": "",
    "latitude": 62.217,
    "longitude": 9.55,
    "elevation": 101.2,
    "active": true
  },
  {
    "id": "012400-99999",
    "name": "HALTEN FYR",
    "country": "NO",
    "state": "",
    "latitude": 64.167,
    "longitude": 9.4,
    "elevation": 1.6,
    "active": true
  },
  {
    "id": "012410-99999",
    "name": "ORLAND",
    "country": "NO",
    "state": "",
    "latitude": 63.699,
    "longitude": 9.604,
    "elevation": 0.85,
    "active": true
  },
  {
    "id": "012420-99999",
    "name": "AFJORD II",
    "country": "NO",
    "state": "",
    "latitude": 63.967,
    "longitude": 10.217,
    "elevation": 3,
    "active": true
  },
  {
    "id": "012450-99999",
    "name": "OPPDAL-SETER",
    "country": "NO",
    "state": "",
    "latitude": 62.6,
    "longitude": 9.667,
    "elevation": 60.6,
    "active": true
  },
  {
    "id": "012500-99999",
    "name": "FOLLDAL-FREDHEIM",
    "country": "NO",
    "state": "",
    "latitude": 62.133,
    "longitude": 10,
    "elevation": 69.4,
    "active": true
  },
  {
    "id": "012530-99999",
    "name": "SOKNEDAL",
    "country": "NO",
    "state": "",
    "latitude": 62.95,
    "longitude": 10.183,
    "elevation": 29.9,
    "active": true
  },
  {
    "id": "012540-99999",
    "name": "KOTSOY",
    "country": "NO",
    "state": "",
    "latitude": 62.983,
    "longitude": 10.55,
    "elevation": 12.7,
    "active": true
  },
  {
    "id": "012570-99999",
    "name": "TRONDHEIM/VOLL",
    "country": "NO",
    "state": "",
    "latitude": 63.417,
    "longitude": 10.45,
    "elevation": 13.15,
    "active": true
  },
  {
    "id": "012590-99999",
    "name": "BUHOLMRASA LH",
    "country": "NO",
    "state": "",
    "latitude": 64.4,
    "longitude": 10.45,
    "elevation": 1.8399999999999999,
    "active": true
  },
  {
    "id": "012620-99999",
    "name": "NORDOYAN FYR",
    "country": "NO",
    "state": "",
    "latitude": 64.8,
    "longitude": 10.55,
    "elevation": 3.3,
    "active": true
  },
  {
    "id": "012650-99999",
    "name": "TYNSET-HANSMOEN",
    "country": "NO",
    "state": "",
    "latitude": 62.267,
    "longitude": 10.733,
    "elevation": 48.230000000000004,
    "active": true
  },
  {
    "id": "012700-99999",
    "name": "KVITHAMAR",
    "country": "NO",
    "state": "",
    "latitude": 63.483,
    "longitude": 10.883,
    "elevation": 4,
    "active": true
  },
  {
    "id": "012710-99999",
    "name": "VAERNES / TRONDHEIM",
    "country": "NO",
    "state": "",
    "latitude": 63.458,
    "longitude": 10.94,
    "elevation": 1.7100000000000002,
    "active": true
  },
  {
    "id": "012720-99999",
    "name": "FROSTA",
    "country": "NO",
    "state": "",
    "latitude": 63.567,
    "longitude": 10.7,
    "elevation": 7,
    "active": true
  },
  {
    "id": "012730-99999",
    "name": "SELBU",
    "country": "NO",
    "state": "",
    "latitude": 63.233,
    "longitude": 11.017,
    "elevation": 16,
    "active": true
  },
  {
    "id": "012770-99999",
    "name": "STEINKJER",
    "country": "NO",
    "state": "",
    "latitude": 64.017,
    "longitude": 11.45,
    "elevation": 8,
    "active": true
  },
  {
    "id": "012810-99999",
    "name": "NAMSSKOGAN",
    "country": "NO",
    "state": "",
    "latitude": 64.733,
    "longitude": 12.85,
    "elevation": 14,
    "active": true
  },
  {
    "id": "012820-99999",
    "name": "RORVIK/RYUM",
    "country": "NO",
    "state": "",
    "latitude": 64.837,
    "longitude": 11.143,
    "elevation": 0.5,
    "active": true
  },
  {
    "id": "012870-99999",
    "name": "SOLENDET",
    "country": "NO",
    "state": "",
    "latitude": 62.683,
    "longitude": 11.817,
    "elevation": 74.7,
    "active": true
  },
  {
    "id": "012880-99999",
    "name": "ROROS",
    "country": "NO",
    "state": "",
    "latitude": 62.567,
    "longitude": 11.383,
    "elevation": 63,
    "active": true
  },
  {
    "id": "012900-99999",
    "name": "NAMSOS AIRPORT",
    "country": "NO",
    "state": "",
    "latitude": 64.467,
    "longitude": 11.583,
    "elevation": 0.2,
    "active": true
  },
  {
    "id": "012910-99999",
    "name": "GARTLAND",
    "country": "NO",
    "state": "",
    "latitude": 64.533,
    "longitude": 12.383,
    "elevation": 9.5,
    "active": true
  },
  {
    "id": "012930-99999",
    "name": "MERAKER-EGGE",
    "country": "NO",
    "state": "",
    "latitude": 63.417,
    "longitude": 11.733,
    "elevation": 17.1,
    "active": true
  },
  {
    "id": "013000-99999",
    "name": "GULLFAKS C",
    "country": "NO",
    "state": "",
    "latitude": 61.2,
    "longitude": 2.267,
    "elevation": 7.8,
    "active": true
  },
  {
    "id": "013005-99999",
    "name": "STATFJORD OIL PLATFORM HELIPO",
    "country": "FO",
    "state": "",
    "latitude": 61.25,
    "longitude": 1.85,
    "elevation": 11.77,
    "active": true
  },
  {
    "id": "013040-99999",
    "name": "YTTEROYANE FYR",
    "country": "NO",
    "state": "",
    "latitude": 61.567,
    "longitude": 4.683,
    "elevation": 2.5,
    "active": true
  },
  {
    "id": "013070-99999",
    "name": "FEDJE",
    "country": "NO",
    "state": "",
    "latitude": 60.75,
    "longitude": 4.717,
    "elevation": 2,
    "active": true
  },
  {
    "id": "013080-99999",
    "name": "FURUNESET",
    "country": "NO",
    "state": "",
    "latitude": 61.3,
    "longitude": 5.05,
    "elevation": 0.7,
    "active": true
  },
  {
    "id": "013100-99999",
    "name": "FLORO",
    "country": "NO",
    "state": "",
    "latitude": 61.584,
    "longitude": 5.025,
    "elevation": 1.1300000000000001,
    "active": true
  },
  {
    "id": "013110-99999",
    "name": "FLESLAND / BERGEN",
    "country": "NO",
    "state": "",
    "latitude": 60.293,
    "longitude": 5.218,
    "elevation": 5.18,
    "active": true
  },
  {
    "id": "013140-99999",
    "name": "FOSSMARK",
    "country": "NO",
    "state": "",
    "latitude": 60.517,
    "longitude": 5.717,
    "elevation": 1,
    "active": true
  },
  {
    "id": "013150-99999",
    "name": "EVANGER",
    "country": "NO",
    "state": "",
    "latitude": 60.633,
    "longitude": 6.1,
    "elevation": 1.7,
    "active": true
  },
  {
    "id": "013170-99999",
    "name": "BERGEN/FLORIDA",
    "country": "NO",
    "state": "",
    "latitude": 60.383,
    "longitude": 5.333,
    "elevation": 3.6,
    "active": true
  },
  {
    "id": "013190-99999",
    "name": "TAKLE",
    "country": "NO",
    "state": "",
    "latitude": 61.033,
    "longitude": 5.383,
    "elevation": 3.8,
    "active": true
  },
  {
    "id": "013200-99999",
    "name": "SANDANE/ANDA",
    "country": "NO",
    "state": "",
    "latitude": 61.833,
    "longitude": 6.117,
    "elevation": 6,
    "active": true
  },
  {
    "id": "013210-99999",
    "name": "STRYN",
    "country": "NO",
    "state": "",
    "latitude": 61.9,
    "longitude": 6.55,
    "elevation": 20.8,
    "active": true
  },
  {
    "id": "013230-99999",
    "name": "BRINGELAND / FORDE",
    "country": "NO",
    "state": "",
    "latitude": 61.393,
    "longitude": 5.764,
    "elevation": 32.7,
    "active": true
  },
  {
    "id": "013260-99999",
    "name": "MODALEN III",
    "country": "NO",
    "state": "",
    "latitude": 60.85,
    "longitude": 5.983,
    "elevation": 12.5,
    "active": true
  },
  {
    "id": "013270-99999",
    "name": "KVAMSKOGEN-JONSHOGDI",
    "country": "NO",
    "state": "",
    "latitude": 60.383,
    "longitude": 5.967,
    "elevation": 45.5,
    "active": true
  },
  {
    "id": "013290-99999",
    "name": "KVAMSOY",
    "country": "NO",
    "state": "",
    "latitude": 60.35,
    "longitude": 6.267,
    "elevation": 5,
    "active": true
  },
  {
    "id": "013320-99999",
    "name": "FJAERLAND BREMUSEET",
    "country": "NO",
    "state": "",
    "latitude": 61.43,
    "longitude": 6.77,
    "elevation": 0.3,
    "active": true
  },
  {
    "id": "013360-99999",
    "name": "BULKEN",
    "country": "NO",
    "state": "",
    "latitude": 60.65,
    "longitude": 6.217,
    "elevation": 32.8,
    "active": true
  },
  {
    "id": "013370-99999",
    "name": "VOSSEVANGEN",
    "country": "NO",
    "state": "",
    "latitude": 60.633,
    "longitude": 6.433,
    "elevation": 5.5,
    "active": true
  },
  {
    "id": "013380-99999",
    "name": "VANGSNES",
    "country": "NO",
    "state": "",
    "latitude": 61.167,
    "longitude": 6.65,
    "elevation": 5.1,
    "active": true
  },
  {
    "id": "013400-99999",
    "name": "FET I EIDFJORD",
    "country": "NO",
    "state": "",
    "latitude": 60.42,
    "longitude": 7.28,
    "elevation": 73.7,
    "active": true
  },
  {
    "id": "013420-99999",
    "name": "ULLENSVANG",
    "country": "NO",
    "state": "",
    "latitude": 60.317,
    "longitude": 6.65,
    "elevation": 1.2,
    "active": true
  },
  {
    "id": "013440-99999",
    "name": "MJOLFJELL",
    "country": "NO",
    "state": "",
    "latitude": 60.7,
    "longitude": 6.95,
    "elevation": 69.5,
    "active": true
  },
  {
    "id": "013450-99999",
    "name": "KLEVAVATNET",
    "country": "NO",
    "state": "",
    "latitude": 60.717,
    "longitude": 7.217,
    "elevation": 96,
    "active": true
  },
  {
    "id": "013460-99999",
    "name": "MIDTSTOVA",
    "country": "NO",
    "state": "",
    "latitude": 60.65,
    "longitude": 7.267,
    "elevation": 116.2,
    "active": true
  },
  {
    "id": "013470-99999",
    "name": "SOGNDAL HAUKASEN",
    "country": "NO",
    "state": "",
    "latitude": 61.156,
    "longitude": 7.137,
    "elevation": 51.1,
    "active": true
  },
  {
    "id": "013500-99999",
    "name": "FINSEVATN",
    "country": "NO",
    "state": "",
    "latitude": 60.6,
    "longitude": 7.533,
    "elevation": 120.8,
    "active": true
  },
  {
    "id": "013520-99999",
    "name": "SANDHAUG",
    "country": "NO",
    "state": "",
    "latitude": 60.183,
    "longitude": 7.483,
    "elevation": 125,
    "active": true
  },
  {
    "id": "013550-99999",
    "name": "LAERDAL IV",
    "country": "NO",
    "state": "",
    "latitude": 61.1,
    "longitude": 7.5,
    "elevation": 0.5,
    "active": true
  },
  {
    "id": "013570-99999",
    "name": "HOLLEKOLTEN",
    "country": "NO",
    "state": "",
    "latitude": 60.867,
    "longitude": 8.517,
    "elevation": 80.42,
    "active": true
  },
  {
    "id": "013580-99999",
    "name": "HEMSEDAL II",
    "country": "NO",
    "state": "",
    "latitude": 60.85,
    "longitude": 8.6,
    "elevation": 60.4,
    "active": true
  },
  {
    "id": "013590-99999",
    "name": "GEILO-OLDEBRATEN",
    "country": "NO",
    "state": "",
    "latitude": 60.533,
    "longitude": 8.2,
    "elevation": 77.3,
    "active": true
  },
  {
    "id": "013600-99999",
    "name": "BRATA-SLETTOM",
    "country": "NO",
    "state": "",
    "latitude": 61.9,
    "longitude": 7.9,
    "elevation": 66.4,
    "active": true
  },
  {
    "id": "013610-99999",
    "name": "GROTLI III",
    "country": "NO",
    "state": "",
    "latitude": 62.017,
    "longitude": 7.667,
    "elevation": 87.2,
    "active": true
  },
  {
    "id": "013620-99999",
    "name": "JUVVASSHOE",
    "country": "NO",
    "state": "",
    "latitude": 61.667,
    "longitude": 8.367,
    "elevation": 189.4,
    "active": true
  },
  {
    "id": "013640-99999",
    "name": "FILEFJELL",
    "country": "NO",
    "state": "",
    "latitude": 61.183,
    "longitude": 8.117,
    "elevation": 95.51,
    "active": true
  },
  {
    "id": "013650-99999",
    "name": "BEITOSTOLEN II",
    "country": "NO",
    "state": "",
    "latitude": 61.251,
    "longitude": 8.917,
    "elevation": 96.5,
    "active": true
  },
  {
    "id": "013660-99999",
    "name": "SOGNEFJELL",
    "country": "NO",
    "state": "",
    "latitude": 61.567,
    "longitude": 8,
    "elevation": 141.3,
    "active": true
  },
  {
    "id": "013670-99999",
    "name": "FAGERNES",
    "country": "NO",
    "state": "",
    "latitude": 60.983,
    "longitude": 9.217,
    "elevation": 36.54,
    "active": true
  },
  {
    "id": "013680-99999",
    "name": "LEIRIN",
    "country": "NO",
    "state": "",
    "latitude": 61.016,
    "longitude": 9.288,
    "elevation": 82.2,
    "active": true
  },
  {
    "id": "013700-99999",
    "name": "SKABU",
    "country": "NO",
    "state": "",
    "latitude": 61.517,
    "longitude": 9.4,
    "elevation": 92.8,
    "active": true
  },
  {
    "id": "013710-99999",
    "name": "LOKEN I VOLBU",
    "country": "NO",
    "state": "",
    "latitude": 61.117,
    "longitude": 9.067,
    "elevation": 52.1,
    "active": true
  },
  {
    "id": "013730-99999",
    "name": "NESBYEN-TODOKK",
    "country": "NO",
    "state": "",
    "latitude": 60.567,
    "longitude": 9.133,
    "elevation": 16.6,
    "active": true
  },
  {
    "id": "013740-99999",
    "name": "VEST-TORPA II",
    "country": "NO",
    "state": "",
    "latitude": 60.933,
    "longitude": 10.033,
    "elevation": 54.2,
    "active": true
  },
  {
    "id": "013750-99999",
    "name": "KVITFJELL",
    "country": "NO",
    "state": "",
    "latitude": 61.467,
    "longitude": 10.133,
    "elevation": 102.8,
    "active": true
  },
  {
    "id": "013755-99999",
    "name": "GULLFAX (PLATFORM)",
    "country": "NO",
    "state": "",
    "latitude": 61.033,
    "longitude": 2.033,
    "elevation": 1,
    "active": true
  },
  {
    "id": "013760-99999",
    "name": "GULSVIK II",
    "country": "NO",
    "state": "",
    "latitude": 60.383,
    "longitude": 9.6,
    "elevation": 14.2,
    "active": true
  },
  {
    "id": "013780-99999",
    "name": "LILLEHAMMER-SAETHERENGEN",
    "country": "NO",
    "state": "",
    "latitude": 61.1,
    "longitude": 10.467,
    "elevation": 23.9,
    "active": true
  },
  {
    "id": "013800-99999",
    "name": "VENABU",
    "country": "NO",
    "state": "",
    "latitude": 61.65,
    "longitude": 10.117,
    "elevation": 93,
    "active": true
  },
  {
    "id": "013810-99999",
    "name": "APELSVOLL",
    "country": "NO",
    "state": "",
    "latitude": 60.7,
    "longitude": 10.867,
    "elevation": 26.4,
    "active": true
  },
  {
    "id": "013820-99999",
    "name": "KISE",
    "country": "NO",
    "state": "",
    "latitude": 60.767,
    "longitude": 10.8,
    "elevation": 12.8,
    "active": true
  },
  {
    "id": "013830-99999",
    "name": "EVENSTAD-DIH",
    "country": "NO",
    "state": "",
    "latitude": 61.4,
    "longitude": 11.08,
    "elevation": 25.5,
    "active": true
  },
  {
    "id": "013840-99999",
    "name": "GARDERMOEN / OSLO",
    "country": "NO",
    "state": "",
    "latitude": 60.194,
    "longitude": 11.1,
    "elevation": 20.759999999999998,
    "active": true
  },
  {
    "id": "013850-99999",
    "name": "HAMER",
    "country": "NO",
    "state": "",
    "latitude": 60.817,
    "longitude": 11.067,
    "elevation": 22.23,
    "active": true
  },
  {
    "id": "013860-99999",
    "name": "HAMAR II",
    "country": "NO",
    "state": "",
    "latitude": 60.8,
    "longitude": 11.1,
    "elevation": 13.2,
    "active": true
  },
  {
    "id": "013870-99999",
    "name": "FAVANG",
    "country": "NO",
    "state": "",
    "latitude": 61.45,
    "longitude": 10.183,
    "elevation": 20,
    "active": true
  },
  {
    "id": "013890-99999",
    "name": "RENA AP",
    "country": "NO",
    "state": "",
    "latitude": 61.183,
    "longitude": 11.367,
    "elevation": 25.57,
    "active": true
  },
  {
    "id": "013920-99999",
    "name": "FLISA II",
    "country": "NO",
    "state": "",
    "latitude": 60.617,
    "longitude": 12.017,
    "elevation": 18.5,
    "active": true
  },
  {
    "id": "013930-99999",
    "name": "DREVSJO",
    "country": "NO",
    "state": "",
    "latitude": 61.883,
    "longitude": 12.033,
    "elevation": 67.35,
    "active": true
  },
  {
    "id": "013970-99999",
    "name": "TRYSIL VEGSTASJON",
    "country": "NO",
    "state": "",
    "latitude": 61.3,
    "longitude": 12.267,
    "elevation": 36.14,
    "active": true
  },
  {
    "id": "014030-99999",
    "name": "UTSIRA FYR",
    "country": "NO",
    "state": "",
    "latitude": 59.3,
    "longitude": 4.867,
    "elevation": 5.63,
    "active": true
  },
  {
    "id": "014033-99999",
    "name": "EKOFISK OIL PLTFRM",
    "country": "NO",
    "state": "",
    "latitude": 56.55,
    "longitude": 3.25,
    "elevation": 4.88,
    "active": true
  },
  {
    "id": "014060-99999",
    "name": "SLATTEROY FYR",
    "country": "NO",
    "state": "",
    "latitude": 59.917,
    "longitude": 5.067,
    "elevation": 1.6,
    "active": true
  },
  {
    "id": "014080-99999",
    "name": "KARMOY",
    "country": "NO",
    "state": "",
    "latitude": 59.345,
    "longitude": 5.208,
    "elevation": 2.62,
    "active": true
  },
  {
    "id": "014110-99999",
    "name": "KVITSOY - NORDBO",
    "country": "NO",
    "state": "",
    "latitude": 59.067,
    "longitude": 5.417,
    "elevation": 2.2,
    "active": true
  },
  {
    "id": "014120-99999",
    "name": "OBRESTAD",
    "country": "NO",
    "state": "",
    "latitude": 58.65,
    "longitude": 5.567,
    "elevation": 2.6,
    "active": true
  },
  {
    "id": "014130-99999",
    "name": "SAERHEIM",
    "country": "NO",
    "state": "",
    "latitude": 58.75,
    "longitude": 5.65,
    "elevation": 8.7,
    "active": true
  },
  {
    "id": "014140-99999",
    "name": "ROVER",
    "country": "NO",
    "state": "",
    "latitude": 59.433,
    "longitude": 5.067,
    "elevation": 2.5,
    "active": true
  },
  {
    "id": "014150-99999",
    "name": "SOLA / STAVANGER",
    "country": "NO",
    "state": "",
    "latitude": 58.877,
    "longitude": 5.638,
    "elevation": 0.8800000000000001,
    "active": true
  },
  {
    "id": "014160-99999",
    "name": "STAVANGER VAALAND",
    "country": "NO",
    "state": "",
    "latitude": 58.95,
    "longitude": 5.733,
    "elevation": 7.2,
    "active": true
  },
  {
    "id": "014170-99999",
    "name": "NEDRE VATS",
    "country": "NO",
    "state": "",
    "latitude": 59.483,
    "longitude": 5.75,
    "elevation": 6.5,
    "active": true
  },
  {
    "id": "014180-99999",
    "name": "AUSTEVOLL",
    "country": "NO",
    "state": "",
    "latitude": 60.017,
    "longitude": 5.2,
    "elevation": 3.2,
    "active": true
  },
  {
    "id": "014190-99999",
    "name": "LIARVATN",
    "country": "NO",
    "state": "",
    "latitude": 59.05,
    "longitude": 6.117,
    "elevation": 30,
    "active": true
  },
  {
    "id": "014220-99999",
    "name": "FISTER SIGMUNDSTAD",
    "country": "NO",
    "state": "",
    "latitude": 59.167,
    "longitude": 6.033,
    "elevation": 2.5,
    "active": true
  },
  {
    "id": "014240-99999",
    "name": "SAUDA",
    "country": "NO",
    "state": "",
    "latitude": 59.65,
    "longitude": 6.367,
    "elevation": 0.6,
    "active": true
  },
  {
    "id": "014250-99999",
    "name": "EIK HOVE",
    "country": "NO",
    "state": "",
    "latitude": 58.517,
    "longitude": 6.517,
    "elevation": 6.6,
    "active": true
  },
  {
    "id": "014260-99999",
    "name": "EIGEROYA",
    "country": "NO",
    "state": "",
    "latitude": 58.433,
    "longitude": 5.867,
    "elevation": 4.9,
    "active": true
  },
  {
    "id": "014270-99999",
    "name": "LISTA FYR",
    "country": "NO",
    "state": "",
    "latitude": 58.117,
    "longitude": 6.567,
    "elevation": 1.4,
    "active": true
  },
  {
    "id": "014281-99999",
    "name": "ULA OIL PLATFORM",
    "country": "NO",
    "state": "",
    "latitude": 59.111,
    "longitude": 2.846,
    "elevation": 9.4,
    "active": true
  },
  {
    "id": "014300-99999",
    "name": "MANDAL II",
    "country": "NO",
    "state": "",
    "latitude": 58.017,
    "longitude": 7.45,
    "elevation": 13.8,
    "active": true
  },
  {
    "id": "014310-99999",
    "name": "SIRDAL-SINNES",
    "country": "NO",
    "state": "",
    "latitude": 58.933,
    "longitude": 6.917,
    "elevation": 55.7,
    "active": true
  },
  {
    "id": "014340-99999",
    "name": "VAAGSLI",
    "country": "NO",
    "state": "",
    "latitude": 59.767,
    "longitude": 7.367,
    "elevation": 82.2,
    "active": true
  },
  {
    "id": "014350-99999",
    "name": "HAUKELISETER TESTFELT",
    "country": "NO",
    "state": "",
    "latitude": 59.817,
    "longitude": 7.217,
    "elevation": 98.95,
    "active": true
  },
  {
    "id": "014360-99999",
    "name": "LINDESNES FYR",
    "country": "NO",
    "state": "",
    "latitude": 57.983,
    "longitude": 7.05,
    "elevation": 1.3,
    "active": true
  },
  {
    "id": "014390-99999",
    "name": "KONSMO-HOYLAND",
    "country": "NO",
    "state": "",
    "latitude": 58.25,
    "longitude": 7.442,
    "elevation": 26,
    "active": true
  },
  {
    "id": "014400-99999",
    "name": "BLASJO",
    "country": "NO",
    "state": "",
    "latitude": 59.333,
    "longitude": 6.867,
    "elevation": 110.46,
    "active": true
  },
  {
    "id": "014410-99999",
    "name": "HOVDEN-LUNDANE",
    "country": "NO",
    "state": "",
    "latitude": 59.583,
    "longitude": 7.383,
    "elevation": 83.6,
    "active": true
  },
  {
    "id": "014420-99999",
    "name": "BYGLANDSFJORD",
    "country": "NO",
    "state": "",
    "latitude": 58.667,
    "longitude": 7.8,
    "elevation": 21.1,
    "active": true
  },
  {
    "id": "014440-99999",
    "name": "VALLE",
    "country": "NO",
    "state": "",
    "latitude": 59.2,
    "longitude": 7.517,
    "elevation": 30.2,
    "active": true
  },
  {
    "id": "014470-99999",
    "name": "HOYDALSMO II",
    "country": "NO",
    "state": "",
    "latitude": 59.5,
    "longitude": 8.2,
    "elevation": 56.2,
    "active": true
  },
  {
    "id": "014480-99999",
    "name": "OKSOY FYR",
    "country": "NO",
    "state": "",
    "latitude": 58.067,
    "longitude": 8.05,
    "elevation": 0.8,
    "active": true
  },
  {
    "id": "014490-99999",
    "name": "GJERSTAD",
    "country": "NO",
    "state": "",
    "latitude": 58.867,
    "longitude": 9.033,
    "elevation": 3.2,
    "active": true
  },
  {
    "id": "014500-99999",
    "name": "MOSSTRAND II",
    "country": "NO",
    "state": "",
    "latitude": 59.833,
    "longitude": 8.183,
    "elevation": 97.7,
    "active": true
  },
  {
    "id": "014520-99999",
    "name": "KJEVIK",
    "country": "NO",
    "state": "",
    "latitude": 58.204,
    "longitude": 8.085,
    "elevation": 1.7399999999999998,
    "active": true
  },
  {
    "id": "014530-99999",
    "name": "HYNNEKLEIV",
    "country": "NO",
    "state": "",
    "latitude": 58.6,
    "longitude": 8.417,
    "elevation": 16.2,
    "active": true
  },
  {
    "id": "014550-99999",
    "name": "TVEITSUND",
    "country": "NO",
    "state": "",
    "latitude": 59.033,
    "longitude": 8.517,
    "elevation": 25.2,
    "active": true
  },
  {
    "id": "014590-99999",
    "name": "NELAUG",
    "country": "NO",
    "state": "",
    "latitude": 58.65,
    "longitude": 8.633,
    "elevation": 14.2,
    "active": true
  },
  {
    "id": "014600-99999",
    "name": "GULLHOLMEN",
    "country": "NO",
    "state": "",
    "latitude": 59.433,
    "longitude": 10.583,
    "elevation": 1.4,
    "active": true
  },
  {
    "id": "014611-99999",
    "name": "GAUSTATOPPEN",
    "country": "NO",
    "state": "",
    "latitude": 59.85,
    "longitude": 8.65,
    "elevation": 180.37,
    "active": true
  },
  {
    "id": "014620-99999",
    "name": "PORSGRUNN",
    "country": "NO",
    "state": "",
    "latitude": 59.083,
    "longitude": 9.667,
    "elevation": 9,
    "active": true
  },
  {
    "id": "014630-99999",
    "name": "AS",
    "country": "NO",
    "state": "",
    "latitude": 59.65,
    "longitude": 10.767,
    "elevation": 8.9,
    "active": true
  },
  {
    "id": "014640-99999",
    "name": "LANDVIK",
    "country": "NO",
    "state": "",
    "latitude": 58.333,
    "longitude": 8.517,
    "elevation": 0.6,
    "active": true
  },
  {
    "id": "014650-99999",
    "name": "TORUNGEN FYR",
    "country": "NO",
    "state": "",
    "latitude": 58.4,
    "longitude": 8.783,
    "elevation": 1.5,
    "active": true
  },
  {
    "id": "014660-99999",
    "name": "KJELLER AP",
    "country": "NO",
    "state": "",
    "latitude": 59.967,
    "longitude": 11.033,
    "elevation": 10.9,
    "active": true
  },
  {
    "id": "014670-99999",
    "name": "LYNGOR FYR",
    "country": "NO",
    "state": "",
    "latitude": 58.633,
    "longitude": 9.15,
    "elevation": 0.5,
    "active": true
  },
  {
    "id": "014680-99999",
    "name": "KONGSVINGER",
    "country": "NO",
    "state": "",
    "latitude": 60.183,
    "longitude": 12,
    "elevation": 14.8,
    "active": true
  },
  {
    "id": "014690-99999",
    "name": "HONEFOSS-HOYBY",
    "country": "NO",
    "state": "",
    "latitude": 60.167,
    "longitude": 10.25,
    "elevation": 14,
    "active": true
  },
  {
    "id": "014700-99999",
    "name": "GVARV",
    "country": "NO",
    "state": "",
    "latitude": 59.383,
    "longitude": 9.2,
    "elevation": 9.3,
    "active": true
  },
  {
    "id": "014703-99999",
    "name": "NOTODDEN",
    "country": "NO",
    "state": "",
    "latitude": 59.566,
    "longitude": 9.212,
    "elevation": 1.92,
    "active": true
  },
  {
    "id": "014710-99999",
    "name": "VEGGLI II",
    "country": "NO",
    "state": "",
    "latitude": 60.05,
    "longitude": 9.15,
    "elevation": 27.5,
    "active": true
  },
  {
    "id": "014730-99999",
    "name": "KONGSBERG BRANNSTASJON",
    "country": "NO",
    "state": "",
    "latitude": 59.617,
    "longitude": 9.633,
    "elevation": 17.3,
    "active": true
  },
  {
    "id": "014760-99999",
    "name": "JOMFRULAND FYR",
    "country": "NO",
    "state": "",
    "latitude": 58.85,
    "longitude": 9.55,
    "elevation": 0.5,
    "active": true
  },
  {
    "id": "014770-99999",
    "name": "KONNERUD",
    "country": "NO",
    "state": "",
    "latitude": 59.717,
    "longitude": 10.15,
    "elevation": 19.3,
    "active": true
  },
  {
    "id": "014780-99999",
    "name": "SVENNER LH",
    "country": "NO",
    "state": "",
    "latitude": 58.967,
    "longitude": 10.15,
    "elevation": 1.5,
    "active": true
  },
  {
    "id": "014800-99999",
    "name": "DRAMMEN BERSKOG",
    "country": "NO",
    "state": "",
    "latitude": 59.75,
    "longitude": 10.133,
    "elevation": 0.8,
    "active": true
  },
  {
    "id": "014810-99999",
    "name": "MELSOM",
    "country": "NO",
    "state": "",
    "latitude": 59.233,
    "longitude": 10.35,
    "elevation": 2.6,
    "active": true
  },
  {
    "id": "014820-99999",
    "name": "FERDER LH",
    "country": "NO",
    "state": "",
    "latitude": 59.033,
    "longitude": 10.517,
    "elevation": 0.77,
    "active": true
  },
  {
    "id": "014825-99999",
    "name": "TORP",
    "country": "NO",
    "state": "",
    "latitude": 59.187,
    "longitude": 10.259,
    "elevation": 8.72,
    "active": true
  },
  {
    "id": "014830-99999",
    "name": "TORP",
    "country": "NO",
    "state": "",
    "latitude": 59.183,
    "longitude": 10.267,
    "elevation": 8.8,
    "active": true
  },
  {
    "id": "014840-99999",
    "name": "AURSKOG",
    "country": "NO",
    "state": "",
    "latitude": 59.917,
    "longitude": 11.583,
    "elevation": 12.8,
    "active": true
  },
  {
    "id": "014843-99999",
    "name": "OSEBERG",
    "country": "NO",
    "state": "",
    "latitude": 59.317,
    "longitude": 10.45,
    "elevation": 1.5,
    "active": true
  },
  {
    "id": "014850-99999",
    "name": "DANDE-GALLEBERG",
    "country": "NO",
    "state": "",
    "latitude": 59.617,
    "longitude": 10.217,
    "elevation": 6,
    "active": true
  },
  {
    "id": "014860-99999",
    "name": "ASKER",
    "country": "NO",
    "state": "",
    "latitude": 59.85,
    "longitude": 10.433,
    "elevation": 16.3,
    "active": true
  },
  {
    "id": "014880-99999",
    "name": "HAKADAL",
    "country": "NO",
    "state": "",
    "latitude": 60.117,
    "longitude": 10.833,
    "elevation": 17,
    "active": true
  },
  {
    "id": "014881-99999",
    "name": "STATFJORD B OIL PLATFORM",
    "country": "NO",
    "state": "",
    "latitude": 61.206,
    "longitude": 1.829,
    "elevation": 14.2,
    "active": true
  },
  {
    "id": "014890-99999",
    "name": "BJORNHOLT",
    "country": "NO",
    "state": "",
    "latitude": 60.05,
    "longitude": 10.683,
    "elevation": 36,
    "active": true
  },
  {
    "id": "014900-99999",
    "name": "TRYVANNSHOGDA",
    "country": "NO",
    "state": "",
    "latitude": 59.983,
    "longitude": 10.683,
    "elevation": 52.8,
    "active": true
  },
  {
    "id": "014920-99999",
    "name": "OSLO-BLINDERN",
    "country": "NO",
    "state": "",
    "latitude": 59.95,
    "longitude": 10.717,
    "elevation": 9.7,
    "active": true
  },
  {
    "id": "014930-99999",
    "name": "SARPSBORG",
    "country": "NO",
    "state": "",
    "latitude": 59.283,
    "longitude": 11.117,
    "elevation": 5.7,
    "active": true
  },
  {
    "id": "014940-99999",
    "name": "RYGGE",
    "country": "NO",
    "state": "",
    "latitude": 59.379,
    "longitude": 10.786,
    "elevation": 5.3,
    "active": true
  },
  {
    "id": "014950-99999",
    "name": "STROMTANGEN FYR",
    "country": "NO",
    "state": "",
    "latitude": 59.15,
    "longitude": 10.833,
    "elevation": 1,
    "active": true
  },
  {
    "id": "020001-99999",
    "name": "LJUNGBYHED",
    "country": "SW",
    "state": "",
    "latitude": 56.083,
    "longitude": 13.213,
    "elevation": 4.2700000000000005,
    "active": true
  },
  {
    "id": "020130-99999",
    "name": "RITSEM",
    "country": "SW",
    "state": "",
    "latitude": 67.733,
    "longitude": 17.467,
    "elevation": 54.27,
    "active": true
  },
  {
    "id": "020190-99999",
    "name": "KATTERJAKK A",
    "country": "SW",
    "state": "",
    "latitude": 68.417,
    "longitude": 18.167,
    "elevation": 51.6,
    "active": true
  },
  {
    "id": "020220-99999",
    "name": "ABISKO",
    "country": "SW",
    "state": "",
    "latitude": 68.354,
    "longitude": 18.816,
    "elevation": 39.230000000000004,
    "active": true
  },
  {
    "id": "020240-99999",
    "name": "STORA SJOFALLET",
    "country": "SW",
    "state": "",
    "latitude": 67.5,
    "longitude": 18.3,
    "elevation": 42.5,
    "active": true
  },
  {
    "id": "020290-99999",
    "name": "TARFALA",
    "country": "SW",
    "state": "",
    "latitude": 67.917,
    "longitude": 18.6,
    "elevation": 114.6,
    "active": true
  },
  {
    "id": "020310-99999",
    "name": "RENSJON",
    "country": "SW",
    "state": "",
    "latitude": 68.067,
    "longitude": 19.833,
    "elevation": 49.3,
    "active": true
  },
  {
    "id": "020360-99999",
    "name": "NIKKALUOKTA",
    "country": "SW",
    "state": "",
    "latitude": 67.85,
    "longitude": 19.033,
    "elevation": 46.8,
    "active": true
  },
  {
    "id": "020380-99999",
    "name": "LATNIVAARA",
    "country": "SW",
    "state": "",
    "latitude": 67.25,
    "longitude": 20.267,
    "elevation": 45.3,
    "active": true
  },
  {
    "id": "020440-99999",
    "name": "KIRUNA",
    "country": "SW",
    "state": "",
    "latitude": 67.822,
    "longitude": 20.337,
    "elevation": 45.96,
    "active": true
  },
  {
    "id": "020450-99999",
    "name": "KIRUNA-SOL",
    "country": "SW",
    "state": "",
    "latitude": 67.833,
    "longitude": 20.417,
    "elevation": 42.4,
    "active": true
  },
  {
    "id": "020490-99999",
    "name": "GALLIVARE",
    "country": "SW",
    "state": "",
    "latitude": 67.132,
    "longitude": 20.815,
    "elevation": 31.3,
    "active": true
  },
  {
    "id": "020550-99999",
    "name": "NAIMAKKA",
    "country": "SW",
    "state": "",
    "latitude": 68.683,
    "longitude": 21.533,
    "elevation": 40.2,
    "active": true
  },
  {
    "id": "020640-99999",
    "name": "SAITTAROVA",
    "country": "SW",
    "state": "",
    "latitude": 67.333,
    "longitude": 22.233,
    "elevation": 24,
    "active": true
  },
  {
    "id": "020720-99999",
    "name": "PARKALOMPOLO",
    "country": "SW",
    "state": "",
    "latitude": 67.733,
    "longitude": 22.833,
    "elevation": 31.3,
    "active": true
  },
  {
    "id": "020810-99999",
    "name": "KARESUANDO",
    "country": "SW",
    "state": "",
    "latitude": 68.45,
    "longitude": 22.45,
    "elevation": 33,
    "active": true
  },
  {
    "id": "020910-99999",
    "name": "VISBY-SOL",
    "country": "SW",
    "state": "",
    "latitude": 57.667,
    "longitude": 18.35,
    "elevation": 4.9,
    "active": true
  },
  {
    "id": "020950-99999",
    "name": "PAJALA",
    "country": "SW",
    "state": "",
    "latitude": 67.2,
    "longitude": 23.383,
    "elevation": 17.1,
    "active": true
  },
  {
    "id": "021010-99999",
    "name": "HEMAVAN TARNABY",
    "country": "SE",
    "state": "",
    "latitude": 65.806,
    "longitude": 15.083,
    "elevation": 45.81,
    "active": true
  },
  {
    "id": "021020-99999",
    "name": "STEKENJOKK",
    "country": "SW",
    "state": "",
    "latitude": 65.1,
    "longitude": 14.517,
    "elevation": 103.6,
    "active": true
  },
  {
    "id": "021030-99999",
    "name": "HEMAVAN-GIEREVARTO",
    "country": "SW",
    "state": "",
    "latitude": 65.783,
    "longitude": 15.067,
    "elevation": 79.3,
    "active": true
  },
  {
    "id": "021100-99999",
    "name": "GIELAS",
    "country": "SW",
    "state": "",
    "latitude": 65.333,
    "longitude": 15.067,
    "elevation": 57.7,
    "active": true
  },
  {
    "id": "021190-99999",
    "name": "KVIKKJOKK ARRENJARKA",
    "country": "SW",
    "state": "",
    "latitude": 66.883,
    "longitude": 18.017,
    "elevation": 32,
    "active": true
  },
  {
    "id": "021205-99999",
    "name": "STORUMAN",
    "country": "SW",
    "state": "",
    "latitude": 64.95,
    "longitude": 17.7,
    "elevation": 27.9,
    "active": true
  },
  {
    "id": "021210-99999",
    "name": "MIERKENIS",
    "country": "SW",
    "state": "",
    "latitude": 66.683,
    "longitude": 16.117,
    "elevation": 61.5,
    "active": true
  },
  {
    "id": "021240-99999",
    "name": "ARJEPLOG",
    "country": "SW",
    "state": "",
    "latitude": 66.05,
    "longitude": 17.833,
    "elevation": 43.2,
    "active": true
  },
  {
    "id": "021410-99999",
    "name": "TJAKAAPE",
    "country": "SW",
    "state": "",
    "latitude": 66.317,
    "longitude": 19.217,
    "elevation": 58.2,
    "active": true
  },
  {
    "id": "021470-99999",
    "name": "MALA-BRANNAN",
    "country": "SW",
    "state": "",
    "latitude": 65.15,
    "longitude": 18.6,
    "elevation": 36.3,
    "active": true
  },
  {
    "id": "021510-99999",
    "name": "JOKKMOKK FPL",
    "country": "SW",
    "state": "",
    "latitude": 66.483,
    "longitude": 20.167,
    "elevation": 27.5,
    "active": true
  },
  {
    "id": "021540-99999",
    "name": "VIDSEL",
    "country": "SW",
    "state": "",
    "latitude": 65.875,
    "longitude": 20.15,
    "elevation": 18.2,
    "active": true
  },
  {
    "id": "021610-99999",
    "name": "NATTAVAARA",
    "country": "SW",
    "state": "",
    "latitude": 66.75,
    "longitude": 20.933,
    "elevation": 32.7,
    "active": true
  },
  {
    "id": "021710-99999",
    "name": "BODEN",
    "country": "SW",
    "state": "",
    "latitude": 65.817,
    "longitude": 21.633,
    "elevation": 1.8,
    "active": true
  },
  {
    "id": "021730-99999",
    "name": "ALVSBYN",
    "country": "SW",
    "state": "",
    "latitude": 65.667,
    "longitude": 21.067,
    "elevation": 4.3,
    "active": true
  },
  {
    "id": "021740-99999",
    "name": "LAKATRASK",
    "country": "SW",
    "state": "",
    "latitude": 66.283,
    "longitude": 21.133,
    "elevation": 18.6,
    "active": true
  },
  {
    "id": "021760-99999",
    "name": "PITE-RONNSKAR",
    "country": "SW",
    "state": "",
    "latitude": 65.033,
    "longitude": 21.567,
    "elevation": 0.4,
    "active": true
  },
  {
    "id": "021810-99999",
    "name": "OVERKALIX SVARTBYN",
    "country": "SW",
    "state": "",
    "latitude": 66.267,
    "longitude": 22.85,
    "elevation": 6.2,
    "active": true
  },
  {
    "id": "021840-99999",
    "name": "PAHAROVA",
    "country": "SW",
    "state": "",
    "latitude": 66.817,
    "longitude": 22.333,
    "elevation": 22.9,
    "active": true
  },
  {
    "id": "021850-99999",
    "name": "LULEA-KALLAX",
    "country": "SW",
    "state": "",
    "latitude": 65.55,
    "longitude": 22.133,
    "elevation": 3.4,
    "active": true
  },
  {
    "id": "021860-99999",
    "name": "KALLAX / LULEA",
    "country": "SE",
    "state": "",
    "latitude": 65.544,
    "longitude": 22.122,
    "elevation": 1.98,
    "active": true
  },
  {
    "id": "021880-99999",
    "name": "RODKALLEN",
    "country": "SW",
    "state": "",
    "latitude": 65.317,
    "longitude": 22.383,
    "elevation": 0.2,
    "active": true
  },
  {
    "id": "021910-99999",
    "name": "STORON",
    "country": "SW",
    "state": "",
    "latitude": 65.7,
    "longitude": 23.1,
    "elevation": 0.4,
    "active": true
  },
  {
    "id": "021970-99999",
    "name": "HAPARANDA",
    "country": "SW",
    "state": "",
    "latitude": 65.817,
    "longitude": 24.117,
    "elevation": 1.6,
    "active": true
  },
  {
    "id": "021990-99999",
    "name": "YLINENJARVI",
    "country": "SW",
    "state": "",
    "latitude": 66.617,
    "longitude": 23.467,
    "elevation": 13.2,
    "active": true
  },
  {
    "id": "022050-99999",
    "name": "STORLIEN SOL",
    "country": "SW",
    "state": "",
    "latitude": 63.3,
    "longitude": 12.117,
    "elevation": 64.7,
    "active": true
  },
  {
    "id": "022070-99999",
    "name": "STORLIEN-VISJOVALEN A",
    "country": "SW",
    "state": "",
    "latitude": 63.283,
    "longitude": 12.117,
    "elevation": 58.3,
    "active": true
  },
  {
    "id": "022090-99999",
    "name": "SYLARNA",
    "country": "SW",
    "state": "",
    "latitude": 63.05,
    "longitude": 12.283,
    "elevation": 103,
    "active": true
  },
  {
    "id": "022100-99999",
    "name": "BLAHAMMAREN",
    "country": "SW",
    "state": "",
    "latitude": 63.183,
    "longitude": 12.167,
    "elevation": 109,
    "active": true
  },
  {
    "id": "022190-99999",
    "name": "GADDEDE A",
    "country": "SW",
    "state": "",
    "latitude": 64.5,
    "longitude": 14.217,
    "elevation": 55,
    "active": true
  },
  {
    "id": "022210-99999",
    "name": "KORSVATTNET",
    "country": "SW",
    "state": "",
    "latitude": 63.833,
    "longitude": 13.5,
    "elevation": 71.7,
    "active": true
  },
  {
    "id": "022260-99999",
    "name": "ARE OSTERSUND",
    "country": "SE",
    "state": "",
    "latitude": 63.2,
    "longitude": 14.5,
    "elevation": 37.6,
    "active": true
  },
  {
    "id": "022290-99999",
    "name": "OSTERSUND-SOL",
    "country": "SW",
    "state": "",
    "latitude": 63.2,
    "longitude": 14.483,
    "elevation": 37.4,
    "active": true
  },
  {
    "id": "022300-99999",
    "name": "GUBBHOGEN",
    "country": "SW",
    "state": "",
    "latitude": 64.217,
    "longitude": 15.55,
    "elevation": 31,
    "active": true
  },
  {
    "id": "022310-99999",
    "name": "FOLLINGE",
    "country": "SW",
    "state": "",
    "latitude": 63.683,
    "longitude": 14.6,
    "elevation": 36.2,
    "active": true
  },
  {
    "id": "022360-99999",
    "name": "HALLHAXASEN",
    "country": "SW",
    "state": "",
    "latitude": 63.767,
    "longitude": 15.333,
    "elevation": 37.6,
    "active": true
  },
  {
    "id": "022420-99999",
    "name": "HOTING",
    "country": "SW",
    "state": "",
    "latitude": 64.083,
    "longitude": 16.233,
    "elevation": 24.1,
    "active": true
  },
  {
    "id": "022430-99999",
    "name": "JUNSELE",
    "country": "SW",
    "state": "",
    "latitude": 63.683,
    "longitude": 16.95,
    "elevation": 21.4,
    "active": true
  },
  {
    "id": "022450-99999",
    "name": "VILHELMINA",
    "country": "SW",
    "state": "",
    "latitude": 64.583,
    "longitude": 16.85,
    "elevation": 34.9,
    "active": true
  },
  {
    "id": "022455-99999",
    "name": "LYCKSELE",
    "country": "SW",
    "state": "",
    "latitude": 64.548,
    "longitude": 18.716,
    "elevation": 21.490000000000002,
    "active": true
  },
  {
    "id": "022470-99999",
    "name": "KRANGEDE",
    "country": "SW",
    "state": "",
    "latitude": 63.15,
    "longitude": 16.167,
    "elevation": 18.4,
    "active": true
  },
  {
    "id": "022540-99999",
    "name": "ASELE",
    "country": "SW",
    "state": "",
    "latitude": 64.167,
    "longitude": 17.317,
    "elevation": 30.8,
    "active": true
  },
  {
    "id": "022590-99999",
    "name": "KRAMFORS SOLLEFTEA",
    "country": "SW",
    "state": "",
    "latitude": 63.049,
    "longitude": 17.769,
    "elevation": 1.04,
    "active": true
  },
  {
    "id": "022600-99999",
    "name": "VASTMARKUM",
    "country": "SW",
    "state": "",
    "latitude": 63.133,
    "longitude": 18.25,
    "elevation": 14.3,
    "active": true
  },
  {
    "id": "022610-99999",
    "name": "LYCKSELE",
    "country": "SW",
    "state": "",
    "latitude": 64.55,
    "longitude": 18.717,
    "elevation": 21.1,
    "active": true
  },
  {
    "id": "022630-99999",
    "name": "FREDRIKA",
    "country": "SW",
    "state": "",
    "latitude": 64.083,
    "longitude": 18.367,
    "elevation": 32.7,
    "active": true
  },
  {
    "id": "022650-99999",
    "name": "HEMLING",
    "country": "SW",
    "state": "",
    "latitude": 63.65,
    "longitude": 18.55,
    "elevation": 18.3,
    "active": true
  },
  {
    "id": "022670-99999",
    "name": "ORNSKOLDSVIK",
    "country": "SW",
    "state": "",
    "latitude": 63.408,
    "longitude": 18.99,
    "elevation": 10.790000000000001,
    "active": true
  },
  {
    "id": "022690-99999",
    "name": "SKAGSUDDE",
    "country": "SW",
    "state": "",
    "latitude": 63.183,
    "longitude": 19.017,
    "elevation": 1.1,
    "active": true
  },
  {
    "id": "022710-99999",
    "name": "NORSJO",
    "country": "SW",
    "state": "",
    "latitude": 64.933,
    "longitude": 19.383,
    "elevation": 31,
    "active": true
  },
  {
    "id": "022820-99999",
    "name": "PETISTRASK",
    "country": "SW",
    "state": "",
    "latitude": 64.567,
    "longitude": 19.7,
    "elevation": 25.8,
    "active": true
  },
  {
    "id": "022840-99999",
    "name": "JARNASKLUBB",
    "country": "SW",
    "state": "",
    "latitude": 63.433,
    "longitude": 19.683,
    "elevation": 0.7,
    "active": true
  },
  {
    "id": "022860-99999",
    "name": "UMEA",
    "country": "SW",
    "state": "",
    "latitude": 63.792,
    "longitude": 20.283,
    "elevation": 0.73,
    "active": true
  },
  {
    "id": "022870-99999",
    "name": "HOLMON",
    "country": "SW",
    "state": "",
    "latitude": 63.8,
    "longitude": 20.867,
    "elevation": 0.8,
    "active": true
  },
  {
    "id": "022930-99999",
    "name": "SKELLEFTEA",
    "country": "SW",
    "state": "",
    "latitude": 64.625,
    "longitude": 21.077,
    "elevation": 4.79,
    "active": true
  },
  {
    "id": "022970-99999",
    "name": "BJUROKLUBB",
    "country": "SW",
    "state": "",
    "latitude": 64.483,
    "longitude": 21.583,
    "elevation": 4.3,
    "active": true
  },
  {
    "id": "023070-99999",
    "name": "IDRE FJALL",
    "country": "SW",
    "state": "",
    "latitude": 61.883,
    "longitude": 12.85,
    "elevation": 86.9,
    "active": true
  },
  {
    "id": "023080-99999",
    "name": "TANNAS",
    "country": "SW",
    "state": "",
    "latitude": 62.45,
    "longitude": 12.667,
    "elevation": 72.4,
    "active": true
  },
  {
    "id": "023170-99999",
    "name": "DRAVAGEN",
    "country": "SW",
    "state": "",
    "latitude": 62.1,
    "longitude": 13.617,
    "elevation": 56.6,
    "active": true
  },
  {
    "id": "023190-99999",
    "name": "BORTNAN",
    "country": "SW",
    "state": "",
    "latitude": 62.75,
    "longitude": 13.85,
    "elevation": 46.7,
    "active": true
  },
  {
    "id": "023210-99999",
    "name": "ALVDALEN",
    "country": "SW",
    "state": "",
    "latitude": 61.25,
    "longitude": 14.033,
    "elevation": 25.3,
    "active": true
  },
  {
    "id": "023250-99999",
    "name": "KLOVSJOHOJDEN",
    "country": "SW",
    "state": "",
    "latitude": 62.5,
    "longitude": 14.15,
    "elevation": 80.3,
    "active": true
  },
  {
    "id": "023270-99999",
    "name": "SVEG A",
    "country": "SW",
    "state": "",
    "latitude": 62.05,
    "longitude": 14.4,
    "elevation": 36.2,
    "active": true
  },
  {
    "id": "023290-99999",
    "name": "HAMRA",
    "country": "SW",
    "state": "",
    "latitude": 61.667,
    "longitude": 15,
    "elevation": 45.5,
    "active": true
  },
  {
    "id": "023310-99999",
    "name": "HUNGE",
    "country": "SW",
    "state": "",
    "latitude": 62.75,
    "longitude": 15.083,
    "elevation": 34.3,
    "active": true
  },
  {
    "id": "023430-99999",
    "name": "TORPSHAMMAR",
    "country": "SW",
    "state": "",
    "latitude": 62.5,
    "longitude": 16.283,
    "elevation": 10,
    "active": true
  },
  {
    "id": "023470-99999",
    "name": "DELSBO",
    "country": "SW",
    "state": "",
    "latitude": 61.833,
    "longitude": 16.55,
    "elevation": 7.2,
    "active": true
  },
  {
    "id": "023550-99999",
    "name": "KUGGOREN",
    "country": "SW",
    "state": "",
    "latitude": 61.7,
    "longitude": 17.533,
    "elevation": 1,
    "active": true
  },
  {
    "id": "023650-99999",
    "name": "SUNDSVALL-HARNOSAND",
    "country": "SW",
    "state": "",
    "latitude": 62.517,
    "longitude": 17.45,
    "elevation": 0.8,
    "active": true
  },
  {
    "id": "023660-99999",
    "name": "SUNDSVALL HARNOSAND / SUNDSVA",
    "country": "SE",
    "state": "",
    "latitude": 62.528,
    "longitude": 17.444,
    "elevation": 0.49000000000000005,
    "active": true
  },
  {
    "id": "023680-99999",
    "name": "BRAMON",
    "country": "SW",
    "state": "",
    "latitude": 62.217,
    "longitude": 17.75,
    "elevation": 1.8,
    "active": true
  },
  {
    "id": "023820-99999",
    "name": "LUNGO",
    "country": "SW",
    "state": "",
    "latitude": 62.65,
    "longitude": 18.1,
    "elevation": 1.8,
    "active": true
  },
  {
    "id": "024030-99999",
    "name": "NAVEN",
    "country": "SW",
    "state": "",
    "latitude": 58.7,
    "longitude": 13.117,
    "elevation": 5.3,
    "active": true
  },
  {
    "id": "024070-99999",
    "name": "MALUNG A",
    "country": "SW",
    "state": "",
    "latitude": 60.683,
    "longitude": 13.7,
    "elevation": 30.6,
    "active": true
  },
  {
    "id": "024080-99999",
    "name": "BLOMSKOG",
    "country": "SW",
    "state": "",
    "latitude": 59.217,
    "longitude": 12.083,
    "elevation": 17.1,
    "active": true
  },
  {
    "id": "024110-99999",
    "name": "ARVIKA",
    "country": "SW",
    "state": "",
    "latitude": 59.676,
    "longitude": 12.639,
    "elevation": 7.220000000000001,
    "active": true
  },
  {
    "id": "024170-99999",
    "name": "PALGRUNDEN",
    "country": "SW",
    "state": "",
    "latitude": 58.75,
    "longitude": 13.15,
    "elevation": 5,
    "active": true
  },
  {
    "id": "024180-99999",
    "name": "KARLSTAD",
    "country": "SW",
    "state": "",
    "latitude": 59.445,
    "longitude": 13.337,
    "elevation": 10.73,
    "active": true
  },
  {
    "id": "024190-99999",
    "name": "KARLSTAD SOL",
    "country": "SW",
    "state": "",
    "latitude": 59.367,
    "longitude": 13.467,
    "elevation": 4.6,
    "active": true
  },
  {
    "id": "024230-99999",
    "name": "SUNNE",
    "country": "SW",
    "state": "",
    "latitude": 59.867,
    "longitude": 13.117,
    "elevation": 10.9,
    "active": true
  },
  {
    "id": "024260-99999",
    "name": "GUSTAVSFORS",
    "country": "SW",
    "state": "",
    "latitude": 60.15,
    "longitude": 13.8,
    "elevation": 18.8,
    "active": true
  },
  {
    "id": "024283-99999",
    "name": "OREBRO",
    "country": "SW",
    "state": "",
    "latitude": 59.224,
    "longitude": 15.038,
    "elevation": 5.7299999999999995,
    "active": true
  },
  {
    "id": "024284-99999",
    "name": "MORA",
    "country": "SW",
    "state": "",
    "latitude": 60.958,
    "longitude": 14.511,
    "elevation": 19.32,
    "active": true
  },
  {
    "id": "024285-99999",
    "name": "TORSBY",
    "country": "SW",
    "state": "",
    "latitude": 60.158,
    "longitude": 12.991,
    "elevation": 11.98,
    "active": true
  },
  {
    "id": "024290-99999",
    "name": "DAGLOSEN",
    "country": "SW",
    "state": "",
    "latitude": 59.667,
    "longitude": 14.183,
    "elevation": 13.3,
    "active": true
  },
  {
    "id": "024310-99999",
    "name": "KLOTEN",
    "country": "SW",
    "state": "",
    "latitude": 59.867,
    "longitude": 15.25,
    "elevation": 28.9,
    "active": true
  },
  {
    "id": "024320-99999",
    "name": "OREBRO",
    "country": "SW",
    "state": "",
    "latitude": 59.233,
    "longitude": 15.05,
    "elevation": 5.3,
    "active": true
  },
  {
    "id": "024350-99999",
    "name": "BORLANGE",
    "country": "SW",
    "state": "",
    "latitude": 60.422,
    "longitude": 15.515,
    "elevation": 15.330000000000002,
    "active": true
  },
  {
    "id": "024400-99999",
    "name": "AMOT",
    "country": "SW",
    "state": "",
    "latitude": 60.967,
    "longitude": 16.433,
    "elevation": 16.2,
    "active": true
  },
  {
    "id": "024410-99999",
    "name": "MORA",
    "country": "SW",
    "state": "",
    "latitude": 60.967,
    "longitude": 14.5,
    "elevation": 19.7,
    "active": true
  },
  {
    "id": "024430-99999",
    "name": "ENKOPING",
    "country": "SW",
    "state": "",
    "latitude": 59.65,
    "longitude": 17.117,
    "elevation": 2.6,
    "active": true
  },
  {
    "id": "024460-99999",
    "name": "VASTERAS",
    "country": "SW",
    "state": "",
    "latitude": 59.589,
    "longitude": 16.634,
    "elevation": 0.64,
    "active": true
  },
  {
    "id": "024490-99999",
    "name": "ESKILSTUNA A",
    "country": "SW",
    "state": "",
    "latitude": 59.383,
    "longitude": 16.45,
    "elevation": 1.5,
    "active": true
  },
  {
    "id": "024500-99999",
    "name": "EGGEGRUND",
    "country": "SW",
    "state": "",
    "latitude": 60.733,
    "longitude": 17.567,
    "elevation": 0.4,
    "active": true
  },
  {
    "id": "024520-99999",
    "name": "KILSBERGEN-SUTTARBODA",
    "country": "SW",
    "state": "",
    "latitude": 59.3,
    "longitude": 14.9,
    "elevation": 21.9,
    "active": true
  },
  {
    "id": "024530-99999",
    "name": "GAVLE/SANDVIKEN AIR FORCE BAS",
    "country": "SW",
    "state": "",
    "latitude": 60.717,
    "longitude": 17.167,
    "elevation": 1.6,
    "active": true
  },
  {
    "id": "024560-99999",
    "name": "FILM",
    "country": "SW",
    "state": "",
    "latitude": 60.233,
    "longitude": 17.9,
    "elevation": 3.5,
    "active": true
  },
  {
    "id": "024580-99999",
    "name": "UPPSALA",
    "country": "SW",
    "state": "",
    "latitude": 59.897,
    "longitude": 17.589,
    "elevation": 2.07,
    "active": true
  },
  {
    "id": "024600-99999",
    "name": "ARLANDA",
    "country": "SW",
    "state": "",
    "latitude": 59.652,
    "longitude": 17.919,
    "elevation": 4.18,
    "active": true
  },
  {
    "id": "024620-99999",
    "name": "UPPSALA UNIVERSITY",
    "country": "SW",
    "state": "",
    "latitude": 59.867,
    "longitude": 17.633,
    "elevation": 1.3,
    "active": true
  },
  {
    "id": "024640-99999",
    "name": "BROMMA",
    "country": "SW",
    "state": "",
    "latitude": 59.354,
    "longitude": 17.942,
    "elevation": 1.4300000000000002,
    "active": true
  },
  {
    "id": "024690-99999",
    "name": "TULLINGE",
    "country": "SW",
    "state": "",
    "latitude": 59.183,
    "longitude": 17.917,
    "elevation": 5.4,
    "active": true
  },
  {
    "id": "024760-99999",
    "name": "FLODA",
    "country": "SW",
    "state": "",
    "latitude": 59.05,
    "longitude": 16.4,
    "elevation": 3.3,
    "active": true
  },
  {
    "id": "024810-99999",
    "name": "SALA",
    "country": "SW",
    "state": "",
    "latitude": 59.917,
    "longitude": 16.683,
    "elevation": 5.8,
    "active": true
  },
  {
    "id": "024820-99999",
    "name": "KERSTINBO",
    "country": "SW",
    "state": "",
    "latitude": 60.267,
    "longitude": 16.983,
    "elevation": 5.7,
    "active": true
  },
  {
    "id": "024840-99999",
    "name": "STOCKHOLM/OBSERVATORIET",
    "country": "SW",
    "state": "",
    "latitude": 59.35,
    "longitude": 18.067,
    "elevation": 4.4,
    "active": true
  },
  {
    "id": "024850-99999",
    "name": "STOCKHOLM",
    "country": "SW",
    "state": "",
    "latitude": 59.35,
    "longitude": 18.067,
    "elevation": 5.2,
    "active": true
  },
  {
    "id": "024853-99999",
    "name": "SKAVSTA",
    "country": "SW",
    "state": "",
    "latitude": 58.789,
    "longitude": 16.912,
    "elevation": 4.2700000000000005,
    "active": true
  },
  {
    "id": "024860-99999",
    "name": "ADELSO",
    "country": "SW",
    "state": "",
    "latitude": 59.367,
    "longitude": 17.517,
    "elevation": 0.6,
    "active": true
  },
  {
    "id": "024870-99999",
    "name": "SKARPO A",
    "country": "SW",
    "state": "",
    "latitude": 59.35,
    "longitude": 18.733,
    "elevation": 2.2,
    "active": true
  },
  {
    "id": "024880-99999",
    "name": "ORSKAR",
    "country": "SW",
    "state": "",
    "latitude": 60.533,
    "longitude": 18.383,
    "elevation": 0.9,
    "active": true
  },
  {
    "id": "024890-99999",
    "name": "BERGA",
    "country": "SW",
    "state": "",
    "latitude": 59.067,
    "longitude": 18.117,
    "elevation": 0.3,
    "active": true
  },
  {
    "id": "024900-99999",
    "name": "SVANBERGA",
    "country": "SW",
    "state": "",
    "latitude": 59.833,
    "longitude": 18.633,
    "elevation": 1.6,
    "active": true
  },
  {
    "id": "024930-99999",
    "name": "SODERARM",
    "country": "SW",
    "state": "",
    "latitude": 59.75,
    "longitude": 19.417,
    "elevation": 1.5,
    "active": true
  },
  {
    "id": "024980-99999",
    "name": "SVENSKA HOGARNA A",
    "country": "SW",
    "state": "",
    "latitude": 59.45,
    "longitude": 19.5,
    "elevation": 1.2,
    "active": true
  },
  {
    "id": "025000-99999",
    "name": "NORDKOSTER",
    "country": "SW",
    "state": "",
    "latitude": 58.9,
    "longitude": 11,
    "elevation": 3.5,
    "active": true
  },
  {
    "id": "025010-99999",
    "name": "VADEROARNA",
    "country": "SW",
    "state": "",
    "latitude": 58.583,
    "longitude": 11.067,
    "elevation": 2.4,
    "active": true
  },
  {
    "id": "025030-99999",
    "name": "NORDKOSTER-SOL",
    "country": "SW",
    "state": "",
    "latitude": 58.9,
    "longitude": 11,
    "elevation": 3.3,
    "active": true
  },
  {
    "id": "025050-99999",
    "name": "MASESKAR",
    "country": "SW",
    "state": "",
    "latitude": 58.1,
    "longitude": 11.333,
    "elevation": 1.6,
    "active": true
  },
  {
    "id": "025103-99999",
    "name": "TROLLHATTAN VANERSBORG",
    "country": "SW",
    "state": "",
    "latitude": 58.318,
    "longitude": 12.345,
    "elevation": 4.18,
    "active": true
  },
  {
    "id": "025120-99999",
    "name": "SAVE",
    "country": "SW",
    "state": "",
    "latitude": 57.775,
    "longitude": 11.87,
    "elevation": 1.8,
    "active": true
  },
  {
    "id": "025130-99999",
    "name": "GOTEBORG",
    "country": "SW",
    "state": "",
    "latitude": 57.717,
    "longitude": 12,
    "elevation": 0.2,
    "active": true
  },
  {
    "id": "025140-99999",
    "name": "ARVIDSJAUR",
    "country": "SW",
    "state": "",
    "latitude": 65.59,
    "longitude": 19.282,
    "elevation": 37.95,
    "active": true
  },
  {
    "id": "025160-99999",
    "name": "VINGA",
    "country": "SW",
    "state": "",
    "latitude": 57.633,
    "longitude": 11.617,
    "elevation": 1.9,
    "active": true
  },
  {
    "id": "025180-99999",
    "name": "NIDINGEN",
    "country": "SW",
    "state": "",
    "latitude": 57.3,
    "longitude": 11.9,
    "elevation": 0.2,
    "active": true
  },
  {
    "id": "025200-99999",
    "name": "SATENAS",
    "country": "SW",
    "state": "",
    "latitude": 58.426,
    "longitude": 12.714,
    "elevation": 5.5200000000000005,
    "active": true
  },
  {
    "id": "025260-99999",
    "name": "LANDVETTER",
    "country": "SW",
    "state": "",
    "latitude": 57.663,
    "longitude": 12.28,
    "elevation": 15.419999999999998,
    "active": true
  },
  {
    "id": "025270-99999",
    "name": "GOTEBORG/LANDVETTER",
    "country": "SW",
    "state": "",
    "latitude": 57.667,
    "longitude": 12.291,
    "elevation": 16.4,
    "active": true
  },
  {
    "id": "025310-99999",
    "name": "GOTEBORG-SOL",
    "country": "SW",
    "state": "",
    "latitude": 57.683,
    "longitude": 11.983,
    "elevation": 9.4,
    "active": true
  },
  {
    "id": "025360-99999",
    "name": "RANGEDALA",
    "country": "SW",
    "state": "",
    "latitude": 57.783,
    "longitude": 13.167,
    "elevation": 29.9,
    "active": true
  },
  {
    "id": "025390-99999",
    "name": "ULLARED",
    "country": "SW",
    "state": "",
    "latitude": 57.117,
    "longitude": 12.783,
    "elevation": 12.2,
    "active": true
  },
  {
    "id": "025400-99999",
    "name": "KROPPEFJALL-GRANAN",
    "country": "SW",
    "state": "",
    "latitude": 58.6,
    "longitude": 12.2,
    "elevation": 17.4,
    "active": true
  },
  {
    "id": "025420-99999",
    "name": "HALLUM",
    "country": "SW",
    "state": "",
    "latitude": 58.317,
    "longitude": 13.033,
    "elevation": 7.1,
    "active": true
  },
  {
    "id": "025440-99999",
    "name": "KARLSBORG",
    "country": "SW",
    "state": "",
    "latitude": 58.517,
    "longitude": 14.517,
    "elevation": 9.4,
    "active": true
  },
  {
    "id": "025450-99999",
    "name": "AXSTAL",
    "country": "SW",
    "state": "",
    "latitude": 58.567,
    "longitude": 14.567,
    "elevation": 9.3,
    "active": true
  },
  {
    "id": "025460-99999",
    "name": "GARDSJO",
    "country": "SW",
    "state": "",
    "latitude": 58.883,
    "longitude": 14.383,
    "elevation": 21.2,
    "active": true
  },
  {
    "id": "025480-99999",
    "name": "VISINGSO",
    "country": "SW",
    "state": "",
    "latitude": 58.1,
    "longitude": 14.417,
    "elevation": 9.5,
    "active": true
  },
  {
    "id": "025490-99999",
    "name": "TOMTABACKEN",
    "country": "SW",
    "state": "",
    "latitude": 57.5,
    "longitude": 14.467,
    "elevation": 35.6,
    "active": true
  },
  {
    "id": "025500-99999",
    "name": "JONKOPING",
    "country": "SW",
    "state": "",
    "latitude": 57.758,
    "longitude": 14.069,
    "elevation": 22.59,
    "active": true
  },
  {
    "id": "025520-99999",
    "name": "MALEXANDER",
    "country": "SW",
    "state": "",
    "latitude": 58.067,
    "longitude": 15.233,
    "elevation": 19.7,
    "active": true
  },
  {
    "id": "025540-99999",
    "name": "KETTSTAKA",
    "country": "SW",
    "state": "",
    "latitude": 58.717,
    "longitude": 15.033,
    "elevation": 22.5,
    "active": true
  },
  {
    "id": "025560-99999",
    "name": "HAGSHULT",
    "country": "SW",
    "state": "",
    "latitude": 57.292,
    "longitude": 14.137,
    "elevation": 16.95,
    "active": true
  },
  {
    "id": "025570-99999",
    "name": "HORN",
    "country": "SW",
    "state": "",
    "latitude": 57.883,
    "longitude": 15.867,
    "elevation": 9.1,
    "active": true
  },
  {
    "id": "025580-99999",
    "name": "KOLMARDEN-STROMSFORS",
    "country": "SW",
    "state": "",
    "latitude": 58.683,
    "longitude": 16.317,
    "elevation": 15.5,
    "active": true
  },
  {
    "id": "025590-99999",
    "name": "GLADHAMMAR",
    "country": "SW",
    "state": "",
    "latitude": 57.7,
    "longitude": 16.467,
    "elevation": 3.1,
    "active": true
  },
  {
    "id": "025610-99999",
    "name": "KVARN",
    "country": "SW",
    "state": "",
    "latitude": 58.65,
    "longitude": 15.433,
    "elevation": 1,
    "active": true
  },
  {
    "id": "025620-99999",
    "name": "MALMEN",
    "country": "SW",
    "state": "",
    "latitude": 58.402,
    "longitude": 15.526,
    "elevation": 9.39,
    "active": true
  },
  {
    "id": "025625-99999",
    "name": "SAAB",
    "country": "SW",
    "state": "",
    "latitude": 58.406,
    "longitude": 15.681,
    "elevation": 5.24,
    "active": true
  },
  {
    "id": "025630-99999",
    "name": "HARSTENA",
    "country": "SW",
    "state": "",
    "latitude": 58.25,
    "longitude": 17.017,
    "elevation": 1.8,
    "active": true
  },
  {
    "id": "025635-99999",
    "name": "ANGELHOLM",
    "country": "SW",
    "state": "",
    "latitude": 56.283,
    "longitude": 12.833,
    "elevation": 4.7,
    "active": true
  },
  {
    "id": "025650-99999",
    "name": "HULTSFRED VIMMERBY",
    "country": "SE",
    "state": "",
    "latitude": 57.526,
    "longitude": 15.823,
    "elevation": 11.16,
    "active": true
  },
  {
    "id": "025670-99999",
    "name": "LANDSORT",
    "country": "SW",
    "state": "",
    "latitude": 58.75,
    "longitude": 17.867,
    "elevation": 2,
    "active": true
  },
  {
    "id": "025700-99999",
    "name": "NORRKOPING/BRAVALLA",
    "country": "SW",
    "state": "",
    "latitude": 58.617,
    "longitude": 16.117,
    "elevation": 3.3,
    "active": true
  },
  {
    "id": "025710-99999",
    "name": "KUNGSANGEN",
    "country": "SW",
    "state": "",
    "latitude": 58.586,
    "longitude": 16.251,
    "elevation": 0.9800000000000001,
    "active": true
  },
  {
    "id": "025740-99999",
    "name": "NORRKOPING",
    "country": "SW",
    "state": "",
    "latitude": 58.583,
    "longitude": 16.15,
    "elevation": 4.16,
    "active": true
  },
  {
    "id": "025750-99999",
    "name": "OLANDS NORRA UDDE",
    "country": "SW",
    "state": "",
    "latitude": 57.367,
    "longitude": 17.1,
    "elevation": 0.4,
    "active": true
  },
  {
    "id": "025870-99999",
    "name": "FAROSUND-AR",
    "country": "SW",
    "state": "",
    "latitude": 57.917,
    "longitude": 18.95,
    "elevation": 1.3,
    "active": true
  },
  {
    "id": "025890-99999",
    "name": "GOTSKA SANDON",
    "country": "SW",
    "state": "",
    "latitude": 58.4,
    "longitude": 19.2,
    "elevation": 1.7,
    "active": true
  },
  {
    "id": "025900-99999",
    "name": "VISBY",
    "country": "SW",
    "state": "",
    "latitude": 57.663,
    "longitude": 18.346,
    "elevation": 5,
    "active": true
  },
  {
    "id": "025910-99999",
    "name": "VISBY AEROLOGISKA STATION",
    "country": "SW",
    "state": "",
    "latitude": 57.65,
    "longitude": 18.35,
    "elevation": 4.7,
    "active": true
  },
  {
    "id": "025980-99999",
    "name": "OSTERGARNSHOLM",
    "country": "SW",
    "state": "",
    "latitude": 57.433,
    "longitude": 18.983,
    "elevation": 0.5,
    "active": true
  },
  {
    "id": "026030-99999",
    "name": "BROEN",
    "country": "SW",
    "state": "",
    "latitude": 56.867,
    "longitude": 12.667,
    "elevation": 4.7,
    "active": true
  },
  {
    "id": "026040-99999",
    "name": "HALMSTAD",
    "country": "SW",
    "state": "",
    "latitude": 56.691,
    "longitude": 12.82,
    "elevation": 3.08,
    "active": true
  },
  {
    "id": "026050-99999",
    "name": "HALLANDS VADERO",
    "country": "SW",
    "state": "",
    "latitude": 56.45,
    "longitude": 12.55,
    "elevation": 1,
    "active": true
  },
  {
    "id": "026110-99999",
    "name": "HELSINGBORG",
    "country": "SW",
    "state": "",
    "latitude": 56.033,
    "longitude": 12.767,
    "elevation": 4.4,
    "active": true
  },
  {
    "id": "026150-99999",
    "name": "FALSTERBO A",
    "country": "SW",
    "state": "",
    "latitude": 55.383,
    "longitude": 12.817,
    "elevation": 0.5,
    "active": true
  },
  {
    "id": "026180-99999",
    "name": "TORUP",
    "country": "SW",
    "state": "",
    "latitude": 56.95,
    "longitude": 13.067,
    "elevation": 13,
    "active": true
  },
  {
    "id": "026220-99999",
    "name": "LJUNGBY",
    "country": "SW",
    "state": "",
    "latitude": 56.85,
    "longitude": 13.883,
    "elevation": 14.8,
    "active": true
  },
  {
    "id": "026230-99999",
    "name": "HORBY",
    "country": "SW",
    "state": "",
    "latitude": 55.867,
    "longitude": 13.667,
    "elevation": 11.4,
    "active": true
  },
  {
    "id": "026250-99999",
    "name": "SKILLINGE",
    "country": "SW",
    "state": "",
    "latitude": 55.483,
    "longitude": 14.317,
    "elevation": 0.5,
    "active": true
  },
  {
    "id": "026280-99999",
    "name": "HANO",
    "country": "SW",
    "state": "",
    "latitude": 56.017,
    "longitude": 14.85,
    "elevation": 6,
    "active": true
  },
  {
    "id": "026290-99999",
    "name": "HASTVEDA",
    "country": "SW",
    "state": "",
    "latitude": 56.283,
    "longitude": 13.933,
    "elevation": 1,
    "active": true
  },
  {
    "id": "026320-99999",
    "name": "UTKLIPPAN",
    "country": "SW",
    "state": "",
    "latitude": 55.95,
    "longitude": 15.7,
    "elevation": 0.3,
    "active": true
  },
  {
    "id": "026330-99999",
    "name": "LUND SOL",
    "country": "SW",
    "state": "",
    "latitude": 55.717,
    "longitude": 13.217,
    "elevation": 8.6,
    "active": true
  },
  {
    "id": "026350-99999",
    "name": "MALMO",
    "country": "SW",
    "state": "",
    "latitude": 55.567,
    "longitude": 13.067,
    "elevation": 2.1,
    "active": true
  },
  {
    "id": "026360-99999",
    "name": "STURUP / MALMO",
    "country": "SE",
    "state": "",
    "latitude": 55.53,
    "longitude": 13.372,
    "elevation": 7.19,
    "active": true
  },
  {
    "id": "026410-99999",
    "name": "KRONOBERG",
    "country": "SW",
    "state": "",
    "latitude": 56.929,
    "longitude": 14.728,
    "elevation": 18.59,
    "active": true
  },
  {
    "id": "026430-99999",
    "name": "VAXJO-SOL",
    "country": "SW",
    "state": "",
    "latitude": 56.933,
    "longitude": 14.733,
    "elevation": 18.2,
    "active": true
  },
  {
    "id": "026440-99999",
    "name": "OLANDS SODRA UDDE",
    "country": "SW",
    "state": "",
    "latitude": 56.2,
    "longitude": 16.4,
    "elevation": 0.3,
    "active": true
  },
  {
    "id": "026480-99999",
    "name": "VAXJO",
    "country": "SW",
    "state": "",
    "latitude": 56.85,
    "longitude": 14.833,
    "elevation": 20,
    "active": true
  },
  {
    "id": "026510-99999",
    "name": "KRISTIANSTAD",
    "country": "SW",
    "state": "",
    "latitude": 55.922,
    "longitude": 14.086,
    "elevation": 2.32,
    "active": true
  },
  {
    "id": "026610-99999",
    "name": "KOSTA (ORREFORS)",
    "country": "SW",
    "state": "",
    "latitude": 56.833,
    "longitude": 15.467,
    "elevation": 23.2,
    "active": true
  },
  {
    "id": "026640-99999",
    "name": "RONNEBY",
    "country": "SW",
    "state": "",
    "latitude": 56.267,
    "longitude": 15.265,
    "elevation": 5.82,
    "active": true
  },
  {
    "id": "026650-99999",
    "name": "KARLSKRONA-SOL",
    "country": "SW",
    "state": "",
    "latitude": 56.117,
    "longitude": 15.617,
    "elevation": 0.8,
    "active": true
  },
  {
    "id": "026670-99999",
    "name": "KARLSKRONA-SODERSTJERNA",
    "country": "SW",
    "state": "",
    "latitude": 56.15,
    "longitude": 15.583,
    "elevation": 0.8,
    "active": true
  },
  {
    "id": "026720-99999",
    "name": "KALMAR",
    "country": "SW",
    "state": "",
    "latitude": 56.686,
    "longitude": 16.288,
    "elevation": 0.52,
    "active": true
  },
  {
    "id": "026790-99999",
    "name": "HOBURG A",
    "country": "SW",
    "state": "",
    "latitude": 56.917,
    "longitude": 18.15,
    "elevation": 3.9,
    "active": true
  },
  {
    "id": "027010-99999",
    "name": "KILPISJARVI SAANA",
    "country": "FI",
    "state": "",
    "latitude": 69.05,
    "longitude": 20.85,
    "elevation": 100.9,
    "active": true
  },
  {
    "id": "027020-99999",
    "name": "INARI KAAMANEN",
    "country": "FI",
    "state": "",
    "latitude": 69.133,
    "longitude": 27.267,
    "elevation": 15.6,
    "active": true
  },
  {
    "id": "027040-99999",
    "name": "HATTULA LEPAA AWS",
    "country": "FI",
    "state": "",
    "latitude": 61.117,
    "longitude": 24.317,
    "elevation": 8.7,
    "active": true
  },
  {
    "id": "027050-99999",
    "name": "PELKOSENNIEMI PYHATUNTURI",
    "country": "FI",
    "state": "",
    "latitude": 67.017,
    "longitude": 27.217,
    "elevation": 48.75,
    "active": true
  },
  {
    "id": "027060-99999",
    "name": "LOHJA PORLA",
    "country": "FI",
    "state": "",
    "latitude": 60.25,
    "longitude": 24.05,
    "elevation": 3.7,
    "active": true
  },
  {
    "id": "027080-99999",
    "name": "KARVIA ALKKIA",
    "country": "FI",
    "state": "",
    "latitude": 62.183,
    "longitude": 22.8,
    "elevation": 16.1,
    "active": true
  },
  {
    "id": "027100-99999",
    "name": "VESANTO SONKARI",
    "country": "FI",
    "state": "",
    "latitude": 62.917,
    "longitude": 26.417,
    "elevation": 12,
    "active": true
  },
  {
    "id": "027140-99999",
    "name": "VAALA PELSO",
    "country": "FI",
    "state": "",
    "latitude": 64.5,
    "longitude": 26.44,
    "elevation": 11.4,
    "active": true
  },
  {
    "id": "027170-99999",
    "name": "KITTILA POKKA",
    "country": "FI",
    "state": "",
    "latitude": 68.167,
    "longitude": 25.767,
    "elevation": 27.2,
    "active": true
  },
  {
    "id": "027180-99999",
    "name": "PUUMALA KK URHEILUKENTTA",
    "country": "FI",
    "state": "",
    "latitude": 61.517,
    "longitude": 28.183,
    "elevation": 9.8,
    "active": true
  },
  {
    "id": "027190-99999",
    "name": "SODANKYLA KOKKA",
    "country": "FI",
    "state": "",
    "latitude": 67.817,
    "longitude": 27.75,
    "elevation": 24,
    "active": true
  },
  {
    "id": "027200-99999",
    "name": "KITTILA",
    "country": "FI",
    "state": "",
    "latitude": 67.701,
    "longitude": 24.847,
    "elevation": 19.630000000000003,
    "active": true
  },
  {
    "id": "027210-99999",
    "name": "KOKKOLA TANKAR",
    "country": "FI",
    "state": "",
    "latitude": 63.95,
    "longitude": 22.85,
    "elevation": 0.63,
    "active": true
  },
  {
    "id": "027220-99999",
    "name": "INARI SAARISELKA",
    "country": "FI",
    "state": "",
    "latitude": 68.417,
    "longitude": 27.417,
    "elevation": 30.2,
    "active": true
  },
  {
    "id": "027240-99999",
    "name": "LUMPARLAND LANGNAS HARBOUR",
    "country": "FI",
    "state": "",
    "latitude": 60.117,
    "longitude": 20.3,
    "elevation": 1.1,
    "active": true
  },
  {
    "id": "027250-99999",
    "name": "HALSUA KANALA PUROLA",
    "country": "FI",
    "state": "",
    "latitude": 63.45,
    "longitude": 24.45,
    "elevation": 15.3,
    "active": true
  },
  {
    "id": "027260-99999",
    "name": "ENONTEKIO NAKKALA",
    "country": "FI",
    "state": "",
    "latitude": 68.6,
    "longitude": 23.583,
    "elevation": 37.4,
    "active": true
  },
  {
    "id": "027270-99999",
    "name": "ASIKKALA PULKKILANHARJU",
    "country": "FI",
    "state": "",
    "latitude": 61.267,
    "longitude": 25.517,
    "elevation": 7.6,
    "active": true
  },
  {
    "id": "027320-99999",
    "name": "KUOPIO RITONIEMI",
    "country": "FI",
    "state": "",
    "latitude": 62.8,
    "longitude": 27.9,
    "elevation": 8.7,
    "active": true
  },
  {
    "id": "027330-99999",
    "name": "LAPPEENRANTA KONNUNSUO",
    "country": "FI",
    "state": "",
    "latitude": 61.033,
    "longitude": 28.567,
    "elevation": 4.64,
    "active": true
  },
  {
    "id": "027340-99999",
    "name": "PARIKKALA KOITSANLAHTI",
    "country": "FI",
    "state": "",
    "latitude": 61.45,
    "longitude": 29.467,
    "elevation": 7.5,
    "active": true
  },
  {
    "id": "027350-99999",
    "name": "VIRRAT AIJANNEVA",
    "country": "FI",
    "state": "",
    "latitude": 62.333,
    "longitude": 23.55,
    "elevation": 13.95,
    "active": true
  },
  {
    "id": "027360-99999",
    "name": "JUVA PARTALA",
    "country": "FI",
    "state": "",
    "latitude": 61.9,
    "longitude": 27.883,
    "elevation": 11.15,
    "active": true
  },
  {
    "id": "027370-99999",
    "name": "TOHOLAMPI LAITALA",
    "country": "FI",
    "state": "",
    "latitude": 63.817,
    "longitude": 24.167,
    "elevation": 8.45,
    "active": true
  },
  {
    "id": "027380-99999",
    "name": "PYHAJARVI OL OJAKYLA",
    "country": "FI",
    "state": "",
    "latitude": 63.733,
    "longitude": 25.7,
    "elevation": 15.330000000000002,
    "active": true
  },
  {
    "id": "027390-99999",
    "name": "SOTKAMO KUOLANIEMI",
    "country": "FI",
    "state": "",
    "latitude": 64.117,
    "longitude": 28.333,
    "elevation": 16.25,
    "active": true
  },
  {
    "id": "027410-99999",
    "name": "JOMALA JOMLABY",
    "country": "FI",
    "state": "",
    "latitude": 60.183,
    "longitude": 19.983,
    "elevation": 1.1,
    "active": true
  },
  {
    "id": "027430-99999",
    "name": "KEMIONSAARI VANO",
    "country": "FI",
    "state": "",
    "latitude": 59.867,
    "longitude": 22.2,
    "elevation": 0.8,
    "active": true
  },
  {
    "id": "027450-99999",
    "name": "SALLA NARUSKA",
    "country": "FI",
    "state": "",
    "latitude": 67.167,
    "longitude": 29.183,
    "elevation": 21.47,
    "active": true
  },
  {
    "id": "027460-99999",
    "name": "HANKO TULLINIEMI",
    "country": "FI",
    "state": "",
    "latitude": 59.817,
    "longitude": 22.917,
    "elevation": 2.75,
    "active": true
  },
  {
    "id": "027470-99999",
    "name": "TURKU RAJAKARI",
    "country": "FI",
    "state": "",
    "latitude": 60.383,
    "longitude": 22.1,
    "elevation": 0.55,
    "active": true
  },
  {
    "id": "027500-99999",
    "name": "HANKO TVARMINNE",
    "country": "FI",
    "state": "",
    "latitude": 59.85,
    "longitude": 23.25,
    "elevation": 0.3,
    "active": true
  },
  {
    "id": "027510-99999",
    "name": "PORI TAHKOLUOTO HARBOUR",
    "country": "FI",
    "state": "",
    "latitude": 61.633,
    "longitude": 21.383,
    "elevation": 0.45999999999999996,
    "active": true
  },
  {
    "id": "027520-99999",
    "name": "KRISTIINANKAUPUNKI LIGHTHOUSE",
    "country": "FI",
    "state": "",
    "latitude": 62.2,
    "longitude": 21.167,
    "elevation": 2.17,
    "active": true
  },
  {
    "id": "027530-99999",
    "name": "KANKAANPAA NIINISALO AIRFIELD",
    "country": "FI",
    "state": "",
    "latitude": 61.833,
    "longitude": 22.467,
    "elevation": 12.2,
    "active": true
  },
  {
    "id": "027540-99999",
    "name": "HAMEENLINNA KATINEN",
    "country": "FI",
    "state": "",
    "latitude": 61,
    "longitude": 24.5,
    "elevation": 8.5,
    "active": true
  },
  {
    "id": "027550-99999",
    "name": "YLIVIESKA AIRFIELD",
    "country": "FI",
    "state": "",
    "latitude": 64.05,
    "longitude": 24.717,
    "elevation": 7.6,
    "active": true
  },
  {
    "id": "027560-99999",
    "name": "SALO KARKKA",
    "country": "FI",
    "state": "",
    "latitude": 60.367,
    "longitude": 23.117,
    "elevation": 0.2,
    "active": true
  },
  {
    "id": "027570-99999",
    "name": "RAASEPORI JUSSARO",
    "country": "FI",
    "state": "",
    "latitude": 59.817,
    "longitude": 23.583,
    "elevation": 2.2800000000000002,
    "active": true
  },
  {
    "id": "027580-99999",
    "name": "VIHTI MAASOJA",
    "country": "FI",
    "state": "",
    "latitude": 60.417,
    "longitude": 24.4,
    "elevation": 4.42,
    "active": true
  },
  {
    "id": "027590-99999",
    "name": "PORVOO HARABACKA",
    "country": "FI",
    "state": "",
    "latitude": 60.4,
    "longitude": 25.6,
    "elevation": 2.35,
    "active": true
  },
  {
    "id": "027600-99999",
    "name": "KUUSAMO RUKA TALVIJARVI",
    "country": "FI",
    "state": "",
    "latitude": 66.167,
    "longitude": 29.133,
    "elevation": 30.65,
    "active": true
  },
  {
    "id": "027610-99999",
    "name": "RAUMA KYLMAPIHLAJA",
    "country": "FI",
    "state": "",
    "latitude": 61.15,
    "longitude": 21.3,
    "elevation": 2.9,
    "active": true
  },
  {
    "id": "027630-99999",
    "name": "TAMPERE HARMALA",
    "country": "FI",
    "state": "",
    "latitude": 61.467,
    "longitude": 23.75,
    "elevation": 8.6,
    "active": true
  },
  {
    "id": "027640-99999",
    "name": "KITTILA LOMPOLONVUOMA",
    "country": "FI",
    "state": "",
    "latitude": 68,
    "longitude": 24.217,
    "elevation": 27,
    "active": true
  },
  {
    "id": "027650-99999",
    "name": "LUHANKA JUDINSALO",
    "country": "FI",
    "state": "",
    "latitude": 61.7,
    "longitude": 25.5,
    "elevation": 8.32,
    "active": true
  },
  {
    "id": "027660-99999",
    "name": "ILOMANTSI POTSONVAARA",
    "country": "FI",
    "state": "",
    "latitude": 63.15,
    "longitude": 31.05,
    "elevation": 23.65,
    "active": true
  },
  {
    "id": "027670-99999",
    "name": "HAMEENLINNA LAMMI PAPPILA",
    "country": "FI",
    "state": "",
    "latitude": 61.05,
    "longitude": 25.05,
    "elevation": 12.5,
    "active": true
  },
  {
    "id": "027680-99999",
    "name": "HEINOLA ASEMANTAUS",
    "country": "FI",
    "state": "",
    "latitude": 61.2,
    "longitude": 26.05,
    "elevation": 9.2,
    "active": true
  },